тип,Пр.Всего,Цена,Балк/Лодж,Санузел,Тип дома,Отделка,Этаж,Мебель,ПлощКухни,ЖилПлощ,Кол-воЭтаж,Кол-воКомн,Парковка,Ремонт,ВысПотол,Техника,ОбщПлощ,ГодПостр,Широта,Долгота,Адрес
Вторичка,202,10100000,лоджия,совмещенный,кирпичный,,8,,9 м²,15 м²,10,1,подземная,требует ремонта,2.6 м,,36.3 м²,2019,55.796977,49.182178,"Республика Татарстан, Казань, ул. Разведчика Ахмерова, 7"
Вторичка,3418,6500000,лоджия,раздельный,кирпичный,,3,,15 м²,32 м²,5,2,открытая во дворе,требует ремонта,2.7 м,,59.7 м²,2022,55.86755336508834,48.83327288107683,"Республика Татарстан, Зеленодольский р-н, Осиновское сельское поселение, с. Новая Тура, Дорожная ул., 8"
Вторичка,53,8100000,лоджия,совмещенный,монолитный,,6,кухня,12.7 м²,15 м²,9,1,"открытая во дворе, за шлагбаумом во дворе",евро,2.8 м,стиральная машина,41.5 м²,2014,55.834477,49.059145,"Республика Татарстан (Татарстан), Казань, ул. Восстания, 80А"
Вторичка,1637,8299000,балкон,совмещенный,кирпичный,,8,"кухня, хранение одежды, спальные места",12 м²,19 м²,,1,"подземная, открытая во дворе, за шлагбаумом во дворе",косметический,2.7 м,"холодильник, стиральная машина",54.7 м²,,55.73064041,49.16921616,"Республика Татарстан, Казань, ул. Баки Урманче, 10"
Вторичка,6499,14990000,лоджия,совмещенный,монолитно-кирпичный,,3,"кухня, хранение одежды, спальные места",19.3 м²,25 м²,19,2,"наземная многоуровневая, за шлагбаумом во дворе",дизайнерский,2.7 м,"кондиционер, холодильник, стиральная машина, посудомоечная машина, водонагреватель",45.6 м²,2018,55.7973671,49.1866951,"р-н Советский, Республика Татарстан, Казань, пр. Юнуса Ахметзянова, 10"
Вторичка,473,16500000,,совмещенный,монолитный,,8,,24 м²,,21,1,подземная,требует ремонта,,,46.5 м²,2024,55.815260205475596,49.14405462327571,"Республика Татарстан (Татарстан), Казань, ул. Сибгата Хакима, 62"
Вторичка,1306,8300000,балкон,раздельный,монолитный,,8,,12 м²,19 м²,16,1,,косметический,2.8 м,,53.6 м²,2012,55.730639,49.169215,"Республика Татарстан (Татарстан), Казань, ул. Баки Урманче, 10"
Вторичка,3493,7900000,балкон,совмещенный,кирпичный,,4,"кухня, хранение одежды",8 м²,,10,1,открытая во дворе,евро,2.7 м,"кондиционер, холодильник, стиральная машина, водонагреватель",44.7 м²,,55.72946167,49.17484665,"Республика Татарстан, Казань, ул. Гарифа Ахунова, 14"
Вторичка,11970,30990000,лоджия,"совмещенный, раздельный",монолитно-кирпичный,,6,"кухня, хранение одежды, спальные места",27 м²,21 м²,7,2,"подземная, открытая во дворе",дизайнерский,3.3 м,"кондиционер, холодильник, стиральная машина, посудомоечная машина, водонагреватель",68.5 м²,2021,55.813014049194265,49.13560432760826,"Республика Татарстан (Татарстан), Казань, ул. Алексея Козина, 2"
Вторичка,1027,2790000,,совмещенный,кирпичный,,5,,,,5,студия,,евро,,,17 м²,,55.86221695,49.09963989,"Республика Татарстан, Казань, Авиастроительный район, Молодёжная ул., 10"
Вторичка,3341,15000000,лоджия,раздельный,кирпичный,,5,,13.8 м²,87.4 м²,6,6,,требует ремонта,3 м,,154.9 м²,1994,55.802351,49.17147,"Республика Татарстан, Казань, ул. Николая Ершова, 49А"
Вторичка,1068,21955000,лоджия,раздельный,монолитно-кирпичный,,19,,21 м²,,20,3,"подземная, открытая во дворе",требует ремонта,3.1 м,,68.2 м²,2021,55.81336594,49.13636398,"Республика Татарстан (Татарстан), Казань, ул. Алексея Козина, 2"
Вторичка,8122,5340000,балкон,совмещенный,кирпичный,,3,,6.3 м²,17.8 м²,9,1,открытая во дворе,евро,2.6 м,,31 м²,1984,55.85922623,49.23138046,"р-н Советский, Республика Татарстан, Казань, ул. Солидарности, 28"
Вторичка,195,4150000,"балкон, лоджия",совмещенный,кирпичный,,1,"кухня, хранение одежды, спальные места",,16.3 м²,3,студия,открытая во дворе,дизайнерский,2.7 м,стиральная машина,25 м²,2017,55.811629,49.435817,"Республика Татарстан (Татарстан), Пестречинский р-н, Шигалеевское сельское поселение, с. Новое Шигалеево, ул. Габдуллы Тукая, 14"
Вторичка,3694,6450000,,совмещенный,блочный,,2,"кухня, хранение одежды, спальные места",15.6 м²,41.1 м²,3,2,открытая во дворе,евро,,"кондиционер, холодильник, стиральная машина, посудомоечная машина, водонагреватель",77 м²,2016,55.704311,49.358562,"Республика Татарстан, Пестречинский р-н, Богородское сельское поселение, д. Куюки, 5-й квартал, 4"
Вторичка,64,9000000,лоджия,совмещенный,монолитный,,14,,9 м²,16.1 м²,24,1,подземная,евро,,,41.7 м²,2021,55.780775,49.194125,"Республика Татарстан, Казань, ул. Аделя Кутуя, 110Дк2"
Вторичка,500,11599999,лоджия,совмещенный,монолитный,,13,,12 м²,28 м²,19,2,,евро,,,42 м²,2021,55.803155,49.181953,"р-н Советский, Республика Татарстан (Татарстан), Казань, ул. Николая Ершова, 65Б/2"
Вторичка,3208,23000000,лоджия,раздельный,монолитно-кирпичный,,9,"кухня, хранение одежды, спальные места",25 м²,70 м²,18,4,за шлагбаумом во дворе,евро,2.7 м,"кондиционер, холодильник, стиральная машина, посудомоечная машина, водонагреватель",113 м²,2009,55.833471,49.135061,"Республика Татарстан (Татарстан), Казань, ул. Фатыха Амирхана, 14А"
Вторичка,1503,6500000,балкон,совмещенный,панельный,,5,,6.6 м²,,5,3,открытая во дворе,требует ремонта,,,60.6 м²,,55.83457947,49.12889862,"Республика Татарстан (Татарстан), Казань, ул. Маршала Чуйкова, 42"
Вторичка,248,9383500,лоджия,совмещенный,монолитный,,15,,9.4 м²,17.1 м²,21,1,"подземная, наземная многоуровневая, за шлагбаумом во дворе",требует ремонта,2.7 м,,38.3 м²,2023,55.743036,49.230786,"Республика Татарстан (Татарстан), Казань, ул. Комиссара Габишева, 16А"
Вторичка,4735,16289000,лоджия,раздельный,кирпичный,,8,"кухня, хранение одежды",15.7 м²,39.6 м²,11,2,за шлагбаумом во дворе,евро,2.8 м,"кондиционер, посудомоечная машина, водонагреватель",82.1 м²,2005,55.824359,49.079339,"Республика Татарстан (Татарстан), Казань, ул. Соловецких Юнг, 1"
Вторичка,9011,33900000,балкон,"совмещенный, раздельный",монолитно-кирпичный,,19,"кухня, хранение одежды, спальные места",25 м²,,23,4,подземная,дизайнерский,3.2 м,кондиционер,106 м²,2024,55.7523094510252,49.166972568385134,"Республика Татарстан (Татарстан), Казань, Танковая ул., 2"
Вторичка,2165,22980000,балкон,совмещенный,монолитно-кирпичный,,4,,12 м²,49 м²,7,3,,дизайнерский,,,90 м²,2021,55.800301,48.955003,"р-н Кировский, Республика Татарстан (Татарстан), Казань, Кировский район, Приволжская ул., 210с2"
Вторичка,3098,23999000,лоджия,раздельный,кирпичный,,4,,13.5 м²,47.2 м²,10,3,,дизайнерский,,,81.3 м²,,55.797356,49.180687,"Республика Татарстан, Казань, ул. Разведчика Ахмерова, 5"
Вторичка,1283,9250000,"балкон, лоджия",совмещенный,кирпичный,,8,"кухня, хранение одежды, спальные места",8 м²,42 м²,10,2,открытая во дворе,дизайнерский,2.6 м,"кондиционер, стиральная машина, посудомоечная машина",50.2 м²,1996,55.75516891,49.18956375,"Республика Татарстан, Казань, ул. Хусаина Мавлютова, 9"
Вторичка,8063,10950000,лоджия,совмещенный,монолитно-кирпичный,,7,"кухня, хранение одежды, спальные места",21 м²,9 м²,20,1,"подземная, наземная многоуровневая",евро,2.7 м,"холодильник, стиральная машина, посудомоечная машина",39 м²,,55.7816658,49.18772888,"Республика Татарстан, Казань, ул. Аделя Кутуя, 100"
Вторичка,132,8650000,балкон,совмещенный,кирпичный,,6,,12 м²,,10,1,за шлагбаумом во дворе,евро,,,39.8 м²,,55.79528809,49.1901741,"р-н Советский, Республика Татарстан, Казань, ул. Патриса Лумумбы, 62А"
Новостройки,3687,4670325,лоджия,раздельный,кирпичный,предчистовая,2,,10.6 м²,,3,1,"открытая во дворе, за шлагбаумом во дворе",,3 м,,40.7 м²,,55.73595,48.82341,"с. Лесные Моркваши, пр-т Созидателей, д. 2"
Новостройки,79,15146942,лоджия,,монолитно-кирпичный,без отделки,12,,12 м²,35 м²,14,2,,,,,61.1 м²,,55.77717,49.20217,"ул. Бухарская, стр. 5"
Вторичка,4022,6190000,балкон,совмещенный,панельный,,5,,6 м²,32 м²,5,2,открытая во дворе,косметический,,,45.7 м²,1967,55.83141708,49.06371689,"Республика Татарстан, Казань, ул. Шамиля Усманова, 33"
Вторичка,4225,8599000,лоджия,раздельный,панельный,,9,кухня,7.5 м²,39.4 м²,9,3,открытая во дворе,евро,2.8 м,"кондиционер, водонагреватель",67.6 м²,1981,55.75712585,49.23392105,"Республика Татарстан (Татарстан), Казань, ул. Академика Завойского, 14/74"
Новостройки,423,12286080,балкон,"совмещенный, раздельный",монолитный,предчистовая,6,,19.1 м²,36.9 м²,12,3,"подземная, за шлагбаумом во дворе",,2.7 м,,71.1 м²,,55.80573,49.22513,"р-н Советский, с. Константиновка, стр. 5"
Новостройки,117,6940000,,,монолитно-кирпичный,предчистовая,8,,,12.4 м²,15,1,,,,,31 м²,,55.84603,49.09368,"ул. Михаила Миля, д. 4"
Новостройки,544,11595127,,"совмещенный, раздельный",монолитный,предчистовая,10,,18.5 м²,36.7 м²,12,3,за шлагбаумом во дворе,,2.6 м,,70.9 м²,,55.80589,49.22406,"р-н Советский, с. Константиновка, стр. 3"
Новостройки,323,34004604,,совмещенный,монолитно-кирпичный,без отделки,2,,13.5 м²,53.1 м²,4,3,подземная,,3 м,,107 м²,,55.77592,49.11506,"ул. Сары Садыковой, корп. 3"
Новостройки,1055,9665800,лоджия,,монолитно-кирпичный,предчистовая,6,,14.8 м²,24.1 м²,10,2,,,,,52 м²,,55.71913,49.16621,"р-н Приволжский, ул. Рауиса Гареева, уч. 78Б"
Новостройки,587,12360000,,,монолитно-кирпичный,предчистовая,10,,14.8 м²,29.7 м²,19,2,,,,,61.1 м²,,55.77831,49.1856,"ул. Мансура Хасанова, д. 19"
Вторичка,3040,7290000,балкон,совмещенный,панельный,,2,кухня,6 м²,32 м²,5,2,открытая во дворе,евро,,стиральная машина,43.5 м²,1973,55.750449,49.200899,"Республика Татарстан, Казань, ул. Гарифьянова, 36"
Новостройки,4046,22500000,лоджия,,монолитный,предчистовая,24,,29.4 м²,,25,3,,,,,118.5 м²,,55.76774,49.17494,"Аметьевская магистраль, д. 18, корп. 5"
Новостройки,12534,84221092,балкон,,монолитно-кирпичный,без отделки,20,,,93.1 м²,28,свободная планировка,"подземная, открытая во дворе",,3.1 м,,179.7 м²,,55.81241,49.13999,"ул. Алексея Козина, стр. 1"
Вторичка,139,8450000,,совмещенный,монолитно-кирпичный,,19,"кухня, хранение одежды, спальные места",13 м²,15 м²,25,1,"подземная, наземная многоуровневая, открытая во дворе",евро,2.7 м,"кондиционер, холодильник, стиральная машина",33.8 м²,2022,55.72201594788982,49.18339123891053,"Республика Татарстан (Татарстан), Казань, ул. Братьев Батталовых, 20Ак2"
Новостройки,245,7650720,,раздельный,монолитный,предчистовая,11,,15.4 м²,22.7 м²,12,2,открытая во дворе,,2.6 м,,48.3 м²,,55.68634,49.19768,"р-н Приволжский, Матюшинский тракт, корп. 1"
Новостройки,59,11948172,балкон,"совмещенный, раздельный",монолитный,,2,,16.5 м²,26.5 м²,9,2,открытая во дворе,,2.7 м,,58 м²,,55.81747,49.18425,"р-н Советский, Республика Татарстан (Татарстан), Казань, улица Сибирский Тракт, 34к9"
Вторичка,695,8150000,балкон,совмещенный,кирпичный,,2,"кухня, хранение одежды, спальные места",7 м²,32 м²,5,2,открытая во дворе,дизайнерский,2.6 м,,43 м²,,55.82466888,49.08146667,"Республика Татарстан, Казань, Тверская ул., 7"
Новостройки,1099,11983510,,совмещенный,монолитный,предчистовая,2,,24.8 м²,34.2 м²,17,3,"наземная многоуровневая, открытая во дворе",,2.7 м,,86.9 м²,,55.80707,49.22512,"р-н Советский, ул Анаса Тазетдинова, стр. 9"
Новостройки,3388,30100000,,раздельный,монолитно-кирпичный,чистовая,7,,12.6 м²,,15,3,подземная,,,,82.6 м²,,55.81686,49.14665,"ул. Сибгата Хакима, д. 51"
Новостройки,3594,11407880,"балкон, лоджия",совмещенный,монолитно-кирпичный,предчистовая,5,,21.2 м²,15.4 м²,6,2,подземная,,2.7 м,,47.1 м²,,55.803,49.05729,"ул. Урицкого, стр. 1"
Вторичка,656,8850000,балкон,совмещенный,кирпичный,,6,"кухня, хранение одежды, спальные места",10.1 м²,17.7 м²,14,1,открытая во дворе,косметический,2.6 м,"холодильник, стиральная машина, посудомоечная машина, водонагреватель",40.3 м²,2010,55.83827972,49.15264893,"р-н Ново-Савиновский, Республика Татарстан, Казань, ул. Адоратского, 36В"
Новостройки,1359,16851545,балкон,"совмещенный, раздельный",монолитно-кирпичный,без отделки,4,,5.9 м²,79.6 м²,5,3,подземная,,3 м,,85.5 м²,,55.74582,48.73824,"ул. Спортивная, д. 98"
Вторичка,61,2750000,,совмещенный,кирпичный,,1,"кухня, хранение одежды, спальные места",,13 м²,5,студия,открытая во дворе,евро,2.4 м,"холодильник, стиральная машина, водонагреватель",15 м²,1986,55.814123,49.183957,"р-н Советский, Республика Татарстан (Татарстан), Казань, ул. Академика Кирпичникова, 27"
Новостройки,995,13058965,,,монолитный,предчистовая,3,,6.1 м²,41.1 м²,13,2,подземная,,2.7 м,,69.7 м²,,55.86196,49.09699,"ул. Годовикова, «Авторы на Годовикова»"
Вторичка,498,17800000,лоджия,раздельный,монолитный,,7,,20 м²,19 м²,20,1,,дизайнерский,,,49.6 м²,2021,55.813364,49.136364,"Республика Татарстан (Татарстан), Казань, ул. Алексея Козина, 2"
Новостройки,8058,4371124,лоджия,,монолитно-кирпичный,предчистовая,5,,,11.8 м²,7,студия,открытая во дворе,,2.7 м,,26.4 м²,,55.83289,48.77527,"пос. Октябрьский, корп. 2.2"
Новостройки,5058,7750000,лоджия,раздельный,кирпичный,чистовая,2,,10.6 м²,,3,1,"открытая во дворе, за шлагбаумом во дворе",,3 м,,40.2 м²,,55.73595,48.82341,"с. Лесные Моркваши, пр-т Созидателей, д. 2"
Вторичка,236,8150000,,совмещенный,панельный,,3,"кухня, хранение одежды, спальные места",7 м²,27 м²,5,2,открытая во дворе,дизайнерский,2.7 м,,47 м²,,55.76300812,49.1800499,"Республика Татарстан, Казань, ул. Карбышева, 13А"
Вторичка,1316,3499000,,совмещенный,кирпичный,,6,,,,9,студия,,евро,,,17.5 м²,,55.753635,49.178369,"Республика Татарстан, Казань, ул. Карбышева, 62"
Новостройки,98,15575895,лоджия,,монолитно-кирпичный,без отделки,21,,12.7 м²,28.5 м²,22,2,,,,,59.1 м²,,55.77717,49.20217,"ул. Бухарская, стр. 5"
Вторичка,1403,5650000,балкон,совмещенный,панельный,,2,,7 м²,16 м²,9,1,открытая во дворе,косметический,2.5 м,"холодильник, стиральная машина",31 м²,1970,55.755023,49.166089,"Республика Татарстан (Татарстан), Казань, ул. Латышских Стрелков, 33"
Новостройки,1743,11340000,лоджия,раздельный,монолитно-кирпичный,предчистовая,8,,22.4 м²,25.4 м²,9,2,наземная многоуровневая,,2.7 м,,70 м²,,55.73538,49.16065,"ул. Рашита Салахова, стр. 3"
Вторичка,507,7199000,балкон,совмещенный,кирпичный,,3,"кухня, спальные места",7 м²,20 м²,5,1,открытая во дворе,дизайнерский,2.5 м,"холодильник, стиральная машина",31.4 м²,1970,55.787123,49.158121,"Республика Татарстан, Казань, ул. Достоевского, 74А"
Новостройки,525,6101000,лоджия,,монолитно-кирпичный,предчистовая,4,,,21.1 м²,10,студия,,,,,26.6 м²,,55.71913,49.16621,"р-н Приволжский, ул. Рауиса Гареева, уч. 78Б"
Вторичка,4203,22999000,"балкон, лоджия",совмещенный,кирпичный,,7,"кухня, хранение одежды, спальные места",38 м²,50 м²,10,3,"подземная, наземная многоуровневая, открытая во дворе, за шлагбаумом во дворе",дизайнерский,2.8 м,"кондиционер, холодильник, стиральная машина, посудомоечная машина, водонагреватель",88 м²,2017,55.79498672,49.17937469,"Республика Татарстан, Казань, ул. Николая Ершова, 62Г"
Новостройки,149,12442034,балкон,"совмещенный, раздельный",монолитный,предчистовая,9,,25 м²,34.9 м²,17,3,"наземная многоуровневая, открытая во дворе",,2.7 м,,88.4 м²,,55.80707,49.22512,"р-н Советский, ул Анаса Тазетдинова, стр. 9"
Вторичка,610,5799000,балкон,раздельный,панельный,,8,"кухня, хранение одежды, спальные места",8.1 м²,14.3 м²,10,1,открытая во дворе,косметический,,холодильник,34.3 м²,1995,55.76969147,49.23370361,"Республика Татарстан, Казань, ул. Юлиуса Фучика, 98"
Новостройки,5723,5277390,лоджия,раздельный,кирпичный,предчистовая,3,,9.7 м²,17 м²,5,1,,,,,40.9 м²,,55.73562,48.82283,"с. Лесные Моркваши, ул. Поселковая з/у 3, стр. 7"
Вторичка,920,9980000,лоджия,совмещенный,панельный,,2,"кухня, хранение одежды, спальные места",10 м²,,9,3,"открытая во дворе, за шлагбаумом во дворе",косметический,,"кондиционер, холодильник, стиральная машина, водонагреватель",70 м²,1988,55.76970673,49.23072433,"Республика Татарстан (Татарстан), Казань, ул. Юлиуса Фучика, 143"
Новостройки,700,5602500,лоджия,раздельный,кирпичный,предчистовая,3,,9.7 м²,,5,1,"открытая во дворе, за шлагбаумом во дворе",,3 м,,41.5 м²,,55.73604,48.82434,"с. Лесные Моркваши, пр-т Созидателей, д. 3"
Вторичка,1625,6990000,лоджия,совмещенный,кирпичный,,2,"кухня, хранение одежды, спальные места",6.1 м²,19 м²,9,1,открытая во дворе,дизайнерский,2.5 м,холодильник,33 м²,1972,55.82615240759975,49.07037745195062,"Республика Татарстан (Татарстан), Казань, ул. Восход, 3"
Новостройки,183,25693515,,,монолитно-кирпичный,без отделки,3,,23.8 м²,18.7 м²,5,1,,,,,52.7 м²,,55.78404,49.12951,"ул. Старая, д. 7"
Вторичка,1054,6100000,лоджия,совмещенный,панельный,,8,"кухня, хранение одежды, спальные места",6 м²,16.9 м²,9,1,открытая во дворе,евро,,,32.7 м²,1982,55.745154,49.227489,"Республика Татарстан (Татарстан), Казань, ул. Сафиуллина, 44"
Вторичка,4204,7999000,"балкон, лоджия",раздельный,панельный,,6,"кухня, хранение одежды, спальные места",8 м²,40 м²,9,3,открытая во дворе,косметический,2.6 м,"кондиционер, холодильник",71 м²,,55.752455,49.23508,"Республика Татарстан (Татарстан), Казань, ул. Юлиуса Фучика, 56"
Новостройки,453,4626440,,совмещенный,монолитный,предчистовая,2,,,11 м²,12,студия,открытая во дворе,,2.6 м,,21.7 м²,,55.68634,49.19768,"р-н Приволжский, Матюшинский тракт, корп. 1"
Вторичка,438,6450000,балкон,совмещенный,панельный,,1,кухня,8 м²,17 м²,10,1,,косметический,,,33 м²,1998,55.82383728,49.11467743,"Республика Татарстан, Казань, ул. Четаева, 43"
Новостройки,325,14462234,лоджия,"совмещенный, раздельный",монолитный,предчистовая,2,,19.8 м²,40 м²,12,3,за шлагбаумом во дворе,,2.6 м,,88.8 м²,,55.80589,49.22406,"р-н Советский, с. Константиновка, стр. 3"
Вторичка,1349,14299900,лоджия,совмещенный,монолитно-кирпичный,,15,"кухня, хранение одежды, спальные места",10.7 м²,,16,2,открытая во дворе,дизайнерский,,"кондиционер, стиральная машина, посудомоечная машина",61.3 м²,2014,55.76551437,49.15858078,"Республика Татарстан, Казань, пр-т Универсиады, 12"
Новостройки,310,19978393,,,монолитно-кирпичный,без отделки,2,,15.9 м²,12 м²,5,1,,,,,38.4 м²,,55.78404,49.12951,"ул. Старая, д. 7"
Вторичка,1650,6700000,балкон,совмещенный,панельный,,4,"кухня, хранение одежды, спальные места",6 м²,30.7 м²,5,2,за шлагбаумом во дворе,евро,2.6 м,стиральная машина,45.6 м²,1965,55.83834457,49.10413361,"Республика Татарстан, Казань, ул. Гагарина, 49"
Новостройки,41,7818189,,совмещенный,монолитный,предчистовая,14,,,14.2 м²,23,студия,открытая во дворе,,2.7 м,,28.1 м²,,55.81747,49.18425,"р-н Советский, Республика Татарстан (Татарстан), Казань, улица Сибирский Тракт, 34к9"
Новостройки,184,7771010,балкон,,панельный,предчистовая,10,,9.9 м²,29.7 м²,10,2,,,,,52.9 м²,,55.68618,49.21619,"ул. Габдуллы Тукая, д. 1"
Вторичка,687,12200000,балкон,совмещенный,монолитно-кирпичный,,12,,15 м²,33.4 м²,19,2,,дизайнерский,,,71.5 м²,,55.767919,49.172323,"Республика Татарстан, Казань, ул. Аметьевская Магистраль, 16к1"
Новостройки,40,9639000,балкон,раздельный,монолитный,предчистовая,9,,16.2 м²,24.1 м²,17,2,"наземная многоуровневая, открытая во дворе",,2.7 м,,51 м²,,55.80707,49.22512,"р-н Советский, ул Анаса Тазетдинова, стр. 9"
Вторичка,76,3597000,,совмещенный,кирпичный,,6,кухня,,16.3 м²,10,студия,открытая во дворе,евро,2.5 м,,18 м²,,55.75363541,49.17836761,"Республика Татарстан, Казань, ул. Карбышева, 62"
Вторичка,457,7190000,балкон,совмещенный,кирпичный,,10,"кухня, хранение одежды, спальные места",9 м²,20 м²,10,1,"наземная многоуровневая, открытая во дворе",евро,2.7 м,"кондиционер, холодильник, стиральная машина",34 м²,2019,55.794295,49.247261,"р-н Советский, Республика Татарстан (Татарстан), Казань, ул. Азата Аббасова, 3"
Новостройки,1985,6048900,лоджия,раздельный,кирпичный,предчистовая,2,,10.2 м²,,5,2,"открытая во дворе, за шлагбаумом во дворе",,3 м,,51.7 м²,,55.73545,48.82345,"с. Лесные Моркваши, пр-т Созидателей, д. 1"
Вторичка,2393,8990000,балкон,совмещенный,панельный,,2,"кухня, хранение одежды, спальные места",8.9 м²,13.8 м²,10,1,открытая во дворе,дизайнерский,2.7 м,"кондиционер, стиральная машина",33.6 м²,,55.82276156227861,49.111326232524505,"Республика Татарстан (Татарстан), Казань, ул. Четаева, 68"
Новостройки,10,34242010,лоджия,совмещенный,монолитно-кирпичный,без отделки,5,,18 м²,37.4 м²,8,3,,,,,94.9 м²,,55.77685,49.14003,"ул. Островского, стр. 3"
Новостройки,2578,5589000,лоджия,раздельный,кирпичный,предчистовая,4,,9.7 м²,,5,1,"открытая во дворе, за шлагбаумом во дворе",,3 м,,41.1 м²,,55.73604,48.82434,"с. Лесные Моркваши, пр-т Созидателей, д. 3"
Вторичка,5559,4490000,,совмещенный,кирпичный,,1,,9 м²,32.7 м²,3,2,открытая во дворе,косметический,,,50 м²,,55.863869,49.080992,"Республика Татарстан (Татарстан), Казань, Авиастроительный район, ул. Чапаева, 15"
Новостройки,48,22004425,,совмещенный,монолитно-кирпичный,без отделки,2,,7.4 м²,39.8 м²,4,3,подземная,,3 м,,68.1 м²,,55.77668,49.11431,"ул. Сары Садыковой, корп. 1"
Вторичка,33,6150000,балкон,раздельный,монолитный,,2,"кухня, спальные места",8.5 м²,38.5 м²,5,3,открытая во дворе,евро,2.7 м,,62.3 м²,1985,55.61238098,49.14558029,"Республика Татарстан (Татарстан), Лаишевский р-н, Габишевское сельское поселение, с. Габишево, Советская ул., 8"
Новостройки,11529,9498549,балкон,совмещенный,монолитно-кирпичный,без отделки,4,,5.4 м²,40.5 м²,5,2,подземная,,3 м,,45.9 м²,,55.74582,48.73824,"ул. Спортивная, д. 98"
Вторичка,2044,30500000,лоджия,"совмещенный, раздельный",монолитно-кирпичный,,8,"кухня, хранение одежды, спальные места",25.4 м²,,20,3,"подземная, открытая во дворе",дизайнерский,,"кондиционер, холодильник, стиральная машина, посудомоечная машина, водонагреватель",70.2 м²,2021,55.81330366096172,49.136215590204316,"Республика Татарстан (Татарстан), Казань, ул. Алексея Козина, 2"
Новостройки,478,39296400,,,монолитно-кирпичный,без отделки,2,,19.2 м²,31.8 м²,5,2,,,,,75.6 м²,,55.78404,49.12951,"ул. Старая, д. 7"
Вторичка,0,5300000,балкон,совмещенный,кирпичный,,2,"кухня, хранение одежды, спальные места",5 м²,16 м²,5,1,открытая во дворе,косметический,,"кондиционер, холодильник, стиральная машина, водонагреватель",28.1 м²,,55.84163284,49.08986664,"Республика Татарстан, Казань, ул. Воровского, 13"
Новостройки,990,17391799,,,монолитный,предчистовая,5,,17.5 м²,33.9 м²,13,3,подземная,,2.7 м,,71.7 м²,,55.86196,49.09699,"ул. Годовикова, «Авторы на Годовикова»"
Вторичка,1599,8000000,лоджия,совмещенный,монолитно-кирпичный,,5,,10 м²,18 м²,16,1,,косметический,,,35 м²,2010,55.789062,49.18428,"Республика Татарстан, Казань, пр-т Альберта Камалеева, 14"
Вторичка,1125,6980000,лоджия,совмещенный,монолитный,,11,"кухня, хранение одежды",8.5 м²,20 м²,19,1,открытая во дворе,евро,,кондиционер,36.4 м²,2003,55.791638,49.22121,"р-н Советский, Республика Татарстан (Татарстан), Казань, пр-т Победы, 182"
Вторичка,7239,5300000,,,блочный,,6,,11 м²,,9,1,,косметический,,,39.8 м²,1979,55.823232,49.060914,"Республика Татарстан, Казань, ул. Батыршина, 27"
Новостройки,44,9623048,,совмещенный,монолитный,предчистовая,15,,11.3 м²,16.7 м²,23,1,открытая во дворе,,2.7 м,,36.6 м²,,55.81747,49.18425,"р-н Советский, Республика Татарстан (Татарстан), Казань, улица Сибирский Тракт, 34к9"
Вторичка,80,6700000,балкон,совмещенный,панельный,,5,"кухня, хранение одежды",6 м²,29 м²,5,2,открытая во дворе,евро,2.7 м,"кондиционер, холодильник, водонагреватель",44.4 м²,1973,55.833157,49.13066,"Республика Татарстан (Татарстан), Казань, ул. Фатыха Амирхана, 59"
Новостройки,35,10726331,лоджия,,монолитно-кирпичный,без отделки,6,,13.4 м²,15.6 м²,14,1,,,,,41.2 м²,,55.77717,49.20217,"ул. Бухарская, стр. 5"
Вторичка,475,3800000,,раздельный,блочный,,3,,12 м²,18 м²,3,1,открытая во дворе,косметический,,,43 м²,,55.710327,49.348555,"Республика Татарстан (Татарстан), Пестречинский р-н, Богородское сельское поселение, д. Куюки, 12-й квартал, 1А"
Новостройки,2715,7670000,балкон,совмещенный,монолитный,предчистовая,21,,4 м²,,25,2,,,,,34.9 м²,,55.68727,49.20682,"с. Усады, д. 4.2, блок-секция 1,2"
Вторичка,4982,6450000,,раздельный,кирпичный,,2,"кухня, хранение одежды",10 м²,40 м²,3,3,открытая во дворе,евро,3 м,,80.3 м²,,55.84006882,49.03597641,"Республика Татарстан, Казань, ул. Рахимова, 33"
Новостройки,24,14734844,лоджия,,монолитно-кирпичный,без отделки,16,,12.7 м²,29.6 м²,22,2,,,,,60.3 м²,,55.77717,49.20217,"ул. Бухарская, стр. 5"
Вторичка,2191,5800000,,раздельный,кирпичный,,2,,6 м²,26 м²,5,2,открытая во дворе,косметический,,,40 м²,1968,55.767782,49.140622,"Республика Татарстан (Татарстан), Казань, Ботаническая ул., 17"
Вторичка,11255,13000000,,раздельный,кирпичный,,2,,15 м²,31 м²,10,2,,косметический,,,63.6 м²,2013,55.820051,49.144817,"Республика Татарстан, Казань, Чистопольская ул., 71А"
Вторичка,1971,2790000,,совмещенный,кирпичный,,2,"кухня, спальные места",,,5,студия,открытая во дворе,евро,,стиральная машина,13 м²,1963,55.8143158,49.18418884,"р-н Советский, Республика Татарстан, Казань, ул. Академика Кирпичникова, 27"
Новостройки,1074,34342601,,раздельный,монолитно-кирпичный,без отделки,5,,9 м²,,10,2,подземная,,3 м,,78.3 м²,,55.77409,49.14622,"ул. Шаляпина, жилой дом"
Вторичка,131,4090000,,совмещенный,кирпичный,,5,"кухня, хранение одежды, спальные места",6.1 м²,20 м²,5,1,открытая во дворе,косметический,,холодильник,32 м²,1967,55.866329,49.0189,"р-н Московский, Республика Татарстан (Татарстан), Казань, Беломорская ул., 73"
Новостройки,2965,5277390,лоджия,раздельный,кирпичный,предчистовая,5,,9.7 м²,17 м²,5,1,,,,,40.9 м²,,55.73562,48.82283,"с. Лесные Моркваши, ул. Поселковая з/у 3, стр. 7"
Вторичка,669,6990000,балкон,совмещенный,кирпичный,,5,кухня,6 м²,32 м²,5,2,открытая во дворе,евро,,,44 м²,,55.83273315,49.09176254,"Республика Татарстан, Казань, пр-т Ибрагимова, 41"
Новостройки,41,14071571,лоджия,,монолитно-кирпичный,без отделки,4,,4.9 м²,43.4 м²,14,3,,,,,65.9 м²,,55.77717,49.20217,"ул. Бухарская, стр. 5"
Вторичка,2322,4600000,балкон,раздельный,кирпичный,,5,,7 м²,30 м²,9,2,,косметический,2.7 м,,44.6 м²,1977,55.842443,49.0348,"Республика Татарстан, Казань, Ютазинская ул., 14"
Новостройки,122,5752207,,,монолитно-кирпичный,предчистовая,4,,11.7 м²,13.4 м²,7,1,открытая во дворе,,2.7 м,,35.6 м²,,55.8335,48.77667,"пос. Октябрьский, ул. Новая, стр. 1.1"
Вторичка,1031,3450000,,совмещенный,кирпичный,,2,,,18 м²,5,студия,,евро,,,18 м²,1962,55.835761,49.091071,"Республика Татарстан, Казань, ул. Восстания, 24"
Новостройки,32,12572665,лоджия,,монолитно-кирпичный,без отделки,17,,4.8 м²,27.9 м²,22,2,,,,,46.4 м²,,55.77717,49.20217,"ул. Бухарская, стр. 5"
Новостройки,855,8537100,лоджия,совмещенный,монолитно-кирпичный,без отделки,6,,10.6 м²,18.9 м²,20,1,,,,,42.9 м²,,55.82594,49.0416,"ул. Окольная, блок-секция 3"
Новостройки,440,16241273,балкон,,монолитно-кирпичный,без отделки,2,,3.7 м²,,7,3,подземная,,3 м,,82.4 м²,,55.74582,48.73824,"ул. Спортивная, д. 98"
Вторичка,104,5800000,балкон,,кирпичный,,16,,,19.1 м²,23,студия,,косметический,,,28 м²,,55.7216,49.187631,"Республика Татарстан (Татарстан), Казань, ул. Братьев Батталовых, 20к1"
Новостройки,247,9050000,,,монолитно-кирпичный,,9,,15.6 м²,13.1 м²,19,1,,,,,41.4 м²,,55.77776,49.18614,"ул. Аделя Кутуя, д. 5"
Вторичка,18,6200000,балкон,совмещенный,кирпичный,,2,,5 м²,,9,1,открытая во дворе,евро,2.4 м,,29.6 м²,1977,55.75502777,49.21423721,"Республика Татарстан, Казань, пр-т Победы, 41"
Новостройки,57,9253440,балкон,совмещенный,монолитный,предчистовая,4,,22.3 м²,10.3 м²,14,1,"подземная, открытая во дворе",,2.9 м,,40.8 м²,,55.81776,49.18711,"р-н Советский, ул. Халитова, корп. 2"
Вторичка,34,5997600,,совмещенный,кирпичный,,2,"кухня, хранение одежды, спальные места",7.4 м²,18.6 м²,3,1,открытая во дворе,евро,2.6 м,"кондиционер, стиральная машина, водонагреватель",35.7 м²,1951,55.856245,49.079141,"Республика Татарстан, Казань, Социалистическая ул., 7"
Вторичка,1323,8400000,лоджия,раздельный,панельный,,2,"кухня, хранение одежды",13.4 м²,28.4 м²,9,2,открытая во дворе,евро,2.6 м,кондиционер,58.2 м²,1999,55.777029,49.232448,"Республика Татарстан (Татарстан), Казань, Советский район, мкр-н Азино-1, ул. Закиева, 41"
Новостройки,356,7741630,балкон,,панельный,предчистовая,3,,9.9 м²,29.7 м²,10,2,,,,,52.7 м²,,55.6863,49.21429,"ул. Габдуллы Тукая, д. 3"
Вторичка,538,8550000,балкон,раздельный,кирпичный,,7,"хранение одежды, спальные места",11.3 м²,27.1 м²,10,2,"подземная, за шлагбаумом во дворе",косметический,2.7 м,"кондиционер, холодильник, стиральная машина",54 м²,2016,55.79061127,49.24929047,"р-н Советский, Республика Татарстан (Татарстан), Казань, ул. Азата Аббасова, 12"
Новостройки,253,19591602,,,монолитно-кирпичный,без отделки,4,,16.3 м²,12.6 м²,5,1,,,,,37.7 м²,,55.78404,49.12951,"ул. Старая, д. 7"
Вторичка,1678,7800000,балкон,совмещенный,кирпичный,,4,"кухня, спальные места",6 м²,18 м²,5,1,открытая во дворе,дизайнерский,2.7 м,"холодильник, стиральная машина",28 м²,1974,55.76995087,49.14081192,"Республика Татарстан, Казань, ул. Шаляпина, 41А"
Новостройки,23558,5195570,лоджия,раздельный,кирпичный,предчистовая,2,,9.7 м²,17 м²,5,1,,,,,40.9 м²,,55.73562,48.82283,"с. Лесные Моркваши, ул. Поселковая з/у 3, стр. 7"
Вторичка,360,2400000,,совмещенный,кирпичный,,6,"кухня, хранение одежды, спальные места",,,9,студия,открытая во дворе,косметический,,"холодильник, стиральная машина, водонагреватель",13.2 м²,1979,55.85988617,49.23121643,"р-н Советский, Республика Татарстан, Казань, ул. Солидарности, 21"
Новостройки,82,16062669,лоджия,,монолитно-кирпичный,без отделки,15,,6.5 м²,44.1 м²,22,3,,,,,68.1 м²,,55.77717,49.20217,"ул. Бухарская, стр. 5"
Вторичка,1403,7499000,балкон,совмещенный,кирпичный,,16,"кухня, хранение одежды, спальные места",12 м²,,16,1,открытая во дворе,евро,2.8 м,"холодильник, стиральная машина",42 м²,2010,55.73064041,49.16921616,"Республика Татарстан, Казань, ул. Баки Урманче, 10"
Новостройки,450,15383835,лоджия,,монолитно-кирпичный,,6,,18.8 м²,32.3 м²,23,2,,,,,71 м²,,55.76561,49.19391,"ул. Аделя Кутуя, д. 181"
Вторичка,850,7399999,лоджия,совмещенный,кирпичный,,3,"кухня, хранение одежды, спальные места",7 м²,20 м²,9,2,"открытая во дворе, за шлагбаумом во дворе",косметический,2.7 м,,38.8 м²,2003,55.778112,49.170769,"Республика Татарстан (Татарстан), Казань, ул. Толбухина, 21"
Вторичка,295,3350000,,совмещенный,кирпичный,,3,"кухня, хранение одежды, спальные места",,,5,студия,,евро,,"холодильник, стиральная машина",16 м²,,55.7904129,49.17442703,"Республика Татарстан, Казань, ул. Гастелло, 20"
Новостройки,682,48039135,,,монолитно-кирпичный,без отделки,1,,,,8,2,,,,,83 м²,,55.78565,49.12887,"пер. Щербаковский, жилой дом"
Новостройки,87,10459250,,раздельный,монолитный,предчистовая,12,,20.5 м²,23.7 м²,12,2,"открытая во дворе, за шлагбаумом во дворе",,2.7 м,,57.5 м²,,55.8064,49.22601,"р-н Советский, с. Константиновка, стр. 7"
Вторичка,908,3690000,,совмещенный,кирпичный,,8,"кухня, хранение одежды, спальные места",,,9,студия,открытая во дворе,евро,,"холодильник, стиральная машина",18.3 м²,,55.75668335,49.21391678,"Республика Татарстан, Казань, ул. Братьев Касимовых, 82"
Вторичка,10119,7990000,балкон,совмещенный,кирпичный,,7,кухня,10.5 м²,14 м²,10,1,"подземная, наземная многоуровневая, открытая во дворе, за шлагбаумом во дворе",евро,2.7 м,,33.9 м²,2021,55.801081,49.20504,"р-н Советский, Республика Татарстан (Татарстан), Казань, ул. Зур Урам, 1Кк5"
Новостройки,487,7741630,балкон,,панельный,предчистовая,6,,9.9 м²,29.7 м²,10,2,,,,,52.7 м²,,55.6863,49.21429,"ул. Габдуллы Тукая, д. 3"
Вторичка,8,12500000,балкон,совмещенный,монолитно-кирпичный,,12,"кухня, хранение одежды, спальные места",13 м²,,19,1,"подземная, открытая во дворе, за шлагбаумом во дворе",евро,,"кондиционер, холодильник, стиральная машина, водонагреватель",45.6 м²,2021,55.82114792,49.14524841,"Республика Татарстан, Казань, ул. Адоратского, 1Б"
Новостройки,842,24278280,,,монолитно-кирпичный,без отделки,4,,,33.5 м²,12,свободная планировка,"подземная, открытая во дворе",,3.1 м,,64.8 м²,,55.81278,49.14094,"ул. Алексея Козина, стр. 2"
Новостройки,21691,5629270,,совмещенный,кирпичный,чистовая,7,,9.4 м²,15.9 м²,17,1,"подземная, наземная многоуровневая",,2.7 м,,32.9 м²,,55.80564288123455,49.22283893911741,"р-н Советский, Республика Татарстан, Казань, жилой комплекс Нокса Парк"
Вторичка,2337,9290000,"балкон, лоджия",совмещенный,панельный,,6,"кухня, хранение одежды, спальные места",7.7 м²,29.8 м²,10,2,открытая во дворе,евро,2.7 м,"кондиционер, холодильник, стиральная машина, водонагреватель",50.9 м²,2004,55.82108307,49.10546112,"Республика Татарстан, Казань, ул. Бондаренко, 20"
Новостройки,22,14701142,лоджия,,монолитно-кирпичный,без отделки,21,,12.7 м²,28.7 м²,22,2,,,,,55.5 м²,,55.77717,49.20217,"ул. Бухарская, стр. 5"
Вторичка,1560,5850000,,раздельный,кирпичный,,3,"кухня, хранение одежды, спальные места",9.6 м²,17.9 м²,4,1,за шлагбаумом во дворе,косметический,3 м,,41.3 м²,1956,55.83404541,49.0851326,"Республика Татарстан (Татарстан), Казань, ул. Восстания, 36"
Вторичка,485,8590000,лоджия,совмещенный,кирпичный,,10,"кухня, хранение одежды, спальные места",15 м²,20 м²,21,2,,евро,2.6 м,"холодильник, стиральная машина",42.3 м²,2019,55.75909805,49.24586868,"Республика Татарстан, Казань, ул. Академика Завойского, 23"
Новостройки,686,13785064,,,монолитный,предчистовая,4,,6.8 м²,48.1 м²,13,2,подземная,,2.7 м,,72.6 м²,,55.86196,49.09699,"ул. Годовикова, «Авторы на Годовикова»"
Вторичка,468,4690000,балкон,совмещенный,кирпичный,,3,"кухня, хранение одежды, спальные места",10 м²,,3,1,открытая во дворе,дизайнерский,,"стиральная машина, водонагреватель",33 м²,,55.80927658,49.44237518,"Республика Татарстан, Пестречинский р-н, Шигалеевское сельское поселение, с. Новое Шигалеево, ул. Фёдора Шаляпина, 8"
Вторичка,3300,2940000,,совмещенный,кирпичный,,5,"кухня, спальные места",,14 м²,5,студия,открытая во дворе,евро,2.7 м,стиральная машина,14 м²,1980,55.770674,49.103863,"Республика Татарстан, Казань, ул. Мазита Гафури, 7"
Новостройки,548,9447900,,раздельный,монолитный,предчистовая,2,,15.5 м²,21.3 м²,17,2,"подземная, за шлагбаумом во дворе",,2.7 м,,46.2 м²,,55.80571,49.2238,"р-н Советский, с. Константиновка, стр. 4"
Вторичка,37,9250000,балкон,совмещенный,панельный,,12,"кухня, хранение одежды",12 м²,,18,2,открытая во дворе,евро,2.6 м,"кондиционер, холодильник",57.2 м²,2015,55.801921,49.243533,"р-н Советский, Республика Татарстан, Казань, ул. Натана Рахлина, 7"
Новостройки,537,12163157,,,монолитный,предчистовая,4,,5.1 м²,37.1 м²,13,2,подземная,,2.7 м,,62.7 м²,,55.86196,49.09699,"ул. Годовикова, «Авторы на Годовикова»"
Новостройки,1,6610000,,,кирпичный,без отделки,11,,,,24,студия,,,,,25.3 м²,,55.72162,49.17871,"ул. Оренбургский Тракт, стр. 1"
Вторичка,1891,6700000,,совмещенный,панельный,,1,"кухня, хранение одежды, спальные места",6 м²,,5,1,открытая во дворе,дизайнерский,2.6 м,"стиральная машина, водонагреватель",32 м²,1965,55.82835007,49.09218597,"Республика Татарстан, Казань, пр-т Ибрагимова, 38"
Новостройки,52,12161769,лоджия,,монолитно-кирпичный,без отделки,6,,4.8 м²,29 м²,14,2,,,,,48 м²,,55.77688,49.20322,"ул. Бухарская, стр. 1"
Новостройки,57,12218325,лоджия,,монолитно-кирпичный,без отделки,11,,4.8 м²,29.6 м²,14,2,,,,,48.6 м²,,55.77717,49.20217,"ул. Бухарская, стр. 5"
Вторичка,94,7200000,балкон,совмещенный,панельный,,2,,6 м²,45 м²,5,3,открытая во дворе,косметический,2.7 м,,59.3 м²,1971,55.75391769,49.19747543,"Республика Татарстан (Татарстан), Казань, ул. Рихарда Зорге, 44"
Новостройки,128,24803873,лоджия,,монолитно-кирпичный,без отделки,8,,21.6 м²,44.9 м²,22,3,,,,,95.5 м²,,55.76723,49.09646,"ул. Портовая, ЖК «Минтимер»"
Вторичка,315,6600000,балкон,совмещенный,кирпичный,,2,"кухня, хранение одежды",6 м²,19 м²,9,1,открытая во дворе,косметический,,кондиционер,32 м²,1973,55.8277359,49.09727097,"Республика Татарстан, Казань, пр-т Ямашева, 30"
Вторичка,2704,8650000,лоджия,совмещенный,монолитно-кирпичный,,8,,10.2 м²,15 м²,22,1,"открытая во дворе, за шлагбаумом во дворе",требует ремонта,2.7 м,,39.5 м²,2017,55.783737,49.195536,"Республика Татарстан (Татарстан), Казань, пр-т Альберта Камалеева, 34"
Новостройки,74,11128276,лоджия,,монолитно-кирпичный,,3,,14.1 м²,18.3 м²,23,1,,,,,44.7 м²,,55.76561,49.19391,"ул. Аделя Кутуя, д. 181"
Новостройки,4728,9000000,,раздельный,монолитно-кирпичный,предчистовая,8,,17.5 м²,,24,3,"подземная, наземная многоуровневая",,2.9 м,,65.7 м²,,55.81410511893019,49.18790194442746,"р-н Советский, Республика Татарстан (Татарстан), Казань, ул. Академика Арбузова"
Вторичка,23,8900000,лоджия,совмещенный,кирпичный,,11,"кухня, хранение одежды, спальные места",13.6 м²,21.7 м²,14,1,за шлагбаумом во дворе,евро,2.7 м,"кондиционер, холодильник, стиральная машина, посудомоечная машина, водонагреватель",41.2 м²,2010,55.76973343,49.18089294,"Республика Татарстан, Казань, Отрадная ул., 48"
Новостройки,154,7756320,балкон,,панельный,предчистовая,10,,9.9 м²,29.7 м²,10,2,,,,,52.8 м²,,55.6863,49.21429,"ул. Габдуллы Тукая, д. 3"
Вторичка,11,8350000,балкон,совмещенный,монолитно-кирпичный,,17,,9 м²,10 м²,20,1,"подземная, наземная многоуровневая",дизайнерский,2.8 м,,30.6 м²,2021,55.78294754,49.19170761,"Республика Татарстан, Казань, пр-т Альберта Камалеева, 32Б"
Вторичка,970,4990000,балкон,совмещенный,кирпичный,,3,,9.7 м²,17.3 м²,3,1,,евро,,,34.3 м²,,55.80995,49.43615,"Республика Татарстан, Пестречинский р-н, Шигалеевское сельское поселение, с. Новое Шигалеево, ул. Габдуллы Тукая, 21"
Новостройки,2460,11778000,лоджия,раздельный,кирпичный,предчистовая,5,,13.8 м²,,5,3,открытая во дворе,,3 м,,90.2 м²,,55.73554,48.82406,"с. Лесные Моркваши, пр-т Созидателей, д. 2"
Вторичка,344,6450000,балкон,совмещенный,панельный,,11,,12 м²,,17,1,открытая во дворе,требует ремонта,,,39.7 м²,2021,55.680559690895336,49.199350900727325,"р-н Приволжский, Республика Татарстан, Казань, ул. Ярышлар, 2Б"
Вторичка,3145,5550000,,совмещенный,кирпичный,,1,,6 м²,17 м²,5,1,,евро,2.5 м,,32 м²,1961,55.830543,49.084962,"Республика Татарстан, Казань, Волгоградская ул., 10"
Новостройки,152,12328740,,совмещенный,монолитный,предчистовая,1,,25 м²,33.7 м²,17,3,"наземная многоуровневая, открытая во дворе",,2.7 м,,86.7 м²,,55.80703,49.22598,"р-н Советский, ул Анаса Тазетдинова, стр. 10"
Вторичка,0,7500000,"балкон, лоджия",раздельный,кирпичный,,7,"кухня, хранение одежды",13.3 м²,,18,2,открытая во дворе,евро,,,65.1 м²,2017,55.865556,48.881611,"р-н Кировский, Республика Татарстан (Татарстан), Казань, ул. Айрата Арсланова, 8"
Вторичка,42,3300000,балкон,совмещенный,кирпичный,,3,,,24 м²,5,студия,открытая во дворе,требует ремонта,2.7 м,,24 м²,2022,55.722431,49.333275,"Республика Татарстан (Татарстан), Пестречинский р-н, Богородское сельское поселение, д. Куюки, Молодёжная ул., 29"
Новостройки,189,7847030,балкон,,панельный,предчистовая,9,,9.9 м²,29.7 м²,10,2,,,,,52.7 м²,,55.68627,49.21524,"ул. Габдуллы Тукая, д. 3А"
Вторичка,1777,9000000,лоджия,раздельный,кирпичный,,5,,7.7 м²,37 м²,10,3,,косметический,,,63 м²,1984,55.748569,49.203459,"Республика Татарстан, Казань, пр-т Победы, 19"
Новостройки,194,7726940,балкон,,панельный,предчистовая,6,,9.9 м²,29.7 м²,10,2,,,,,52.6 м²,,55.6863,49.21429,"ул. Габдуллы Тукая, д. 3"
Вторичка,739,7100000,,совмещенный,панельный,,2,,8.1 м²,17 м²,9,1,,косметический,,,32.8 м²,1996,55.821709,49.125431,"Республика Татарстан (Татарстан), Казань, ул. Четаева, 36"
Вторичка,1343,8845000,лоджия,совмещенный,кирпичный,,8,"кухня, спальные места",9 м²,16 м²,12,1,наземная многоуровневая,евро,,"кондиционер, холодильник",35 м²,2022,55.733933,49.175728,"Республика Татарстан (Татарстан), Казань, ул. Баки Урманче, 4к2"
Новостройки,101,25889723,,совмещенный,монолитно-кирпичный,без отделки,2,,11.6 м²,35.7 м²,,3,подземная,,3 м,,74.6 м²,,55.77625,49.11482,"ул. Сары Садыковой, корп. 2"
Вторичка,4500,8490000,лоджия,раздельный,монолитно-кирпичный,,7,"кухня, хранение одежды, спальные места",10.3 м²,17.5 м²,18,1,открытая во дворе,косметический,,"холодильник, стиральная машина",43.2 м²,2015,55.783023,49.1955,"Республика Татарстан (Татарстан), Казань, пр-т Альберта Камалеева, 34А"
Новостройки,356,29599461,,совмещенный,монолитно-кирпичный,без отделки,7,,5.4 м²,,10,1,подземная,,3 м,,52.2 м²,,55.77409,49.14622,"ул. Шаляпина, жилой дом"
Вторичка,1032,7399000,лоджия,совмещенный,кирпичный,,3,"кухня, хранение одежды, спальные места",12 м²,18 м²,16,1,открытая во дворе,евро,2.8 м,,38.3 м²,,55.83012772,49.04841995,"Республика Татарстан, Казань, ул. Восстания, 129"
Вторичка,758,7500000,лоджия,раздельный,кирпичный,,4,,8 м²,46.7 м²,5,3,открытая во дворе,требует ремонта,,,70 м²,1978,55.825684,49.049434,"Республика Татарстан (Татарстан), Казань, Окольная ул., 30"
Новостройки,20,11360000,лоджия,,кирпичный,без отделки,4,,15.9 м²,21.1 м²,10,2,,,,,47.9 м²,,55.80853,49.23026,"р-н Советский, с. Константиновка, ул. Анаса Тазетдинова, д. 5"
Вторичка,731,6600000,балкон,совмещенный,кирпичный,,4,,,15 м²,19,студия,открытая во дворе,евро,,,29.8 м²,2020,55.796461,49.250216,"р-н Советский, Республика Татарстан (Татарстан), Казань, Удивительная ул., 9"
Вторичка,113,4400000,балкон,совмещенный,кирпичный,,2,,10 м²,16.5 м²,4,1,,косметический,,,35 м²,2024,55.726193,49.327373,"Республика Татарстан (Татарстан), Пестречинский р-н, Богородское сельское поселение, д. Куюки, Каспийская ул., 3"
Новостройки,33,13960713,лоджия,,монолитно-кирпичный,,15,,5.8 м²,36.5 м²,23,2,,,,,56.6 м²,,55.76561,49.19391,"ул. Аделя Кутуя, д. 181"
Вторичка,2006,5250000,,совмещенный,панельный,,5,"кухня, хранение одежды",6 м²,19 м²,5,1,открытая во дворе,косметический,,,30.1 м²,,55.833698,49.064615,"Республика Татарстан (Татарстан), Казань, ул. Восстания, 78"
Вторичка,50,20800000,лоджия,раздельный,кирпичный,,7,"кухня, хранение одежды, спальные места",25 м²,45 м²,12,2,"подземная, за шлагбаумом во дворе",дизайнерский,3 м,"кондиционер, холодильник, стиральная машина, посудомоечная машина",98 м²,2007,55.821153,49.146739,"Республика Татарстан (Татарстан), Казань, ул. Адоратского, 1"
Новостройки,58,7549499,,,монолитный,предчистовая,5,,,13.8 м²,13,студия,подземная,,2.7 м,,28.2 м²,,55.86196,49.09699,"ул. Годовикова, «Авторы на Годовикова»"
Вторичка,425,7850000,балкон,совмещенный,панельный,,14,кухня,12 м²,18 м²,16,1,открытая во дворе,евро,2.7 м,,47.8 м²,2008,55.786591,49.232448,"р-н Советский, Республика Татарстан, Казань, ул. Академика Глушко, 22А"
Новостройки,1880,16313200,лоджия,совмещенный,монолитно-кирпичный,без отделки,2,,10.2 м²,24.8 м²,5,2,подземная,,3.2 м,,48 м²,,55.79118729,49.1036377,"Республика Татарстан, Казань, ул. Рустема Яхина, 3"
Вторичка,767,27500000,балкон,совмещенный,кирпичный,,3,"кухня, хранение одежды, спальные места",25 м²,,19,3,подземная,дизайнерский,2.7 м,кондиционер,70 м²,,55.8131485,49.13785553,"Республика Татарстан, Казань, ул. Алексея Козина, 2"
Новостройки,55,7699685,,совмещенный,монолитный,предчистовая,13,,,14.3 м²,20,студия,открытая во дворе,,2.7 м,,28.1 м²,,55.81747,49.18425,"р-н Советский, Республика Татарстан (Татарстан), Казань, улица Сибирский Тракт, 34к9"
Вторичка,204,11200000,балкон,раздельный,кирпичный,,9,,10 м²,18 м²,18,1,,евро,,,42.5 м²,,55.81864,49.105525,"Республика Татарстан (Татарстан), Казань, ул. Бондаренко, 28"
Вторичка,2120,13299990,"балкон, лоджия","совмещенный, раздельный",монолитно-кирпичный,,15,"кухня, хранение одежды, спальные места",14.4 м²,41.8 м²,18,3,"открытая во дворе, за шлагбаумом во дворе",дизайнерский,2.6 м,"кондиционер, посудомоечная машина, водонагреватель",79.2 м²,2011,55.78084564,49.23825073,"р-н Советский, Республика Татарстан, Казань, ул. Тыныч, 1"
Вторичка,2575,6200000,лоджия,раздельный,кирпичный,,3,кухня,9 м²,25 м²,9,2,открытая во дворе,косметический,2.8 м,,50.1 м²,,55.86615961784837,49.095590222545844,"Республика Татарстан (Татарстан), Казань, ул. Академика Павлова, 25"
Вторичка,16522,2900000,балкон,совмещенный,кирпичный,,3,кухня,,16 м²,3,студия,открытая во дворе,евро,3.2 м,"холодильник, стиральная машина, водонагреватель",18 м²,1946,55.854259,49.080866,"Республика Татарстан (Татарстан), Казань, ул. Белинского, 6"
Вторичка,230,5900000,,совмещенный,панельный,,1,,5 м²,,5,2,открытая во дворе,косметический,,,46 м²,1972,55.822297437457685,49.10437970674252,"Республика Татарстан (Татарстан), Казань, ул. Бондаренко, 23"
Вторичка,15910,2000000,,совмещенный,кирпичный,,1,,,16 м²,3,студия,за шлагбаумом во дворе,косметический,2.9 м,,16 м²,1938,55.81538773,49.05252457,"Республика Татарстан (Татарстан), Казань, ул. Богатырёва, 1"
Вторичка,1406,7500000,балкон,раздельный,панельный,,2,,8.5 м²,41 м²,10,2,открытая во дворе,требует ремонта,2.7 м,,49.5 м²,1998,55.825189,49.075512,"Республика Татарстан, Казань, ул. Блюхера, 2"
Вторичка,1340,3490000,,совмещенный,кирпичный,,5,,,11.7 м²,5,студия,,косметический,,,21.6 м²,1960,55.804091,49.187945,"р-н Советский, Республика Татарстан, Казань, ул. Академика Губкина, 5"
Вторичка,2195,5650000,,раздельный,кирпичный,,4,кухня,6 м²,,4,2,открытая во дворе,дизайнерский,2.7 м,водонагреватель,51 м²,1932,55.81454849,49.06121063,"Республика Татарстан (Татарстан), Казань, ул. 25 Октября, 9/7"
Вторичка,1429,3780000,балкон,совмещенный,панельный,,1,"кухня, хранение одежды, спальные места",,,10,студия,,дизайнерский,,"холодильник, стиральная машина",19 м²,,55.748832,49.222827,"Республика Татарстан (Татарстан), Казань, ул. Сафиуллина, 30"
Вторичка,1612,6040000,балкон,раздельный,панельный,,7,"кухня, хранение одежды",8 м²,18 м²,9,1,открытая во дворе,евро,2.7 м,,32 м²,1998,55.77760696,49.23523331,"Республика Татарстан, Казань, ул. Академика Глушко, 3"
Вторичка,3301,6290000,,раздельный,кирпичный,,9,"кухня, хранение одежды, спальные места",12 м²,26 м²,10,1,открытая во дворе,евро,2.6 м,холодильник,38 м²,1989,55.83647537,49.13760376,"Республика Татарстан, Казань, ул. Маршала Чуйкова, 53"
Вторичка,1215,6100000,лоджия,совмещенный,кирпичный,,2,"кухня, хранение одежды",9 м²,19 м²,9,1,за шлагбаумом во дворе,косметический,2.7 м,,36.9 м²,1996,55.72873306,49.18769455,"Республика Татарстан, Казань, Оренбургский тракт, 138Б"
Вторичка,341,8000000,,совмещенный,кирпичный,,1,кухня,6 м²,27 м²,5,2,открытая во дворе,косметический,2.2 м,,42.4 м²,1967,55.789068944791715,49.14324007450484,"Республика Татарстан (Татарстан), Казань, ул. Волкова, 77"
Вторичка,1614,5400000,лоджия,совмещенный,панельный,,5,,6.2 м²,18.5 м²,9,1,открытая во дворе,требует ремонта,2.7 м,,34.9 м²,1982,55.74671555,49.22705841,"Республика Татарстан (Татарстан), Казань, ул. Сафиуллина, 42"
Вторичка,1416,7400000,балкон,совмещенный,панельный,,8,"кухня, хранение одежды, спальные места",8 м²,30 м²,10,2,,косметический,2.5 м,кондиционер,45.7 м²,2003,55.7699852,49.24446869,"Республика Татарстан, Казань, Минская ул., 56"
Вторичка,1049,5350000,балкон,совмещенный,панельный,,5,кухня,6.5 м²,16.4 м²,5,1,открытая во дворе,евро,2.5 м,кондиционер,28.5 м²,1972,55.7557265567999,49.206204301403126,"Республика Татарстан (Татарстан), Казань, ул. Братьев Касимовых, 50"
Вторичка,373,6100000,балкон,совмещенный,панельный,,4,"кухня, хранение одежды, спальные места",6.1 м²,18.3 м²,5,1,открытая во дворе,косметический,2.6 м,водонагреватель,32.2 м²,1972,55.75514,49.196928,"Республика Татарстан, Казань, ул. Рихарда Зорге, 38"
Вторичка,359,3950000,балкон,совмещенный,кирпичный,,3,"кухня, хранение одежды, спальные места",7 м²,28 м²,4,2,открытая во дворе,косметический,2.5 м,кондиционер,44 м²,1961,55.81416702,48.90573883,"р-н Кировский, Республика Татарстан, Казань, Привокзальная ул., 40"
Вторичка,364,8100000,балкон,совмещенный,кирпичный,,7,"кухня, хранение одежды, спальные места",8 м²,,9,1,открытая во дворе,косметический,2.7 м,"холодильник, стиральная машина",34.9 м²,2007,55.81785202,49.0837326,"Республика Татарстан, Казань, Дружинная ул., 6"
Вторичка,1129,7000000,балкон,совмещенный,панельный,,7,"кухня, хранение одежды, спальные места",8.7 м²,,9,1,открытая во дворе,косметический,,кондиционер,33.9 м²,,55.82774734,49.13152313,"Республика Татарстан (Татарстан), Казань, пр-т Ямашева, 54к4"
Вторичка,1999,6099000,балкон,совмещенный,панельный,,4,"кухня, хранение одежды, спальные места",6 м²,,5,2,открытая во дворе,евро,,"холодильник, стиральная машина",48 м²,1968,55.832642,49.095158,"Республика Татарстан, Казань, Коллективная ул., 39"
Вторичка,542,9750000,лоджия,раздельный,кирпичный,,5,кухня,9 м²,42 м²,14,3,открытая во дворе,косметический,2.6 м,,60.9 м²,1978,55.82398605,49.09612656,"Республика Татарстан, Казань, пр-т Ибрагимова, 61А"
Вторичка,2384,6750000,балкон,совмещенный,кирпичный,,8,,12.2 м²,10.2 м²,9,1,открытая во дворе,косметический,2.5 м,водонагреватель,30.6 м²,2016,55.76775742,49.10501099,"Республика Татарстан, Казань, ул. Мазита Гафури, 59к1"
Вторичка,3912,10950000,лоджия,совмещенный,кирпичный,,10,"кухня, хранение одежды, спальные места",15 м²,40 м²,10,3,открытая во дворе,дизайнерский,2.5 м,холодильник,60.5 м²,1997,55.842797,49.128836,"Республика Татарстан (Татарстан), Казань, ул. Фатыха Амирхана, 105"
Вторичка,5277,2750000,балкон,совмещенный,кирпичный,,4,"кухня, спальные места",,7.5 м²,,студия,открытая во дворе,дизайнерский,3 м,,11 м²,1950,55.79262218914551,49.16314436937775,"Республика Татарстан (Татарстан), Казань, ул. Николая Ершова, 28"
Вторичка,2761,7390000,лоджия,совмещенный,панельный,,5,"кухня, хранение одежды, спальные места",7.2 м²,19.2 м²,9,1,открытая во дворе,дизайнерский,2.6 м,"кондиционер, стиральная машина",40 м²,,55.83777785644708,49.12010266501798,"Республика Татарстан (Татарстан), Казань, ул. Мусина, 71"
Вторичка,3312,7600000,балкон,раздельный,панельный,,9,кухня,7.1 м²,,9,3,открытая во дворе,косметический,,,53.9 м²,,55.753372,49.179959,"Республика Татарстан (Татарстан), Казань, ул. Карбышева, 33"
Вторичка,2459,3700000,,совмещенный,кирпичный,,3,,4.8 м²,,3,1,,косметический,,,28 м²,1962,55.819757,49.060663,"Республика Татарстан (Татарстан), Казань, Повстанческая ул., 1А"
Вторичка,6697,2199000,,совмещенный,кирпичный,,4,кухня,,15 м²,9,студия,открытая во дворе,евро,2.7 м,,18 м²,1975,55.86005402,49.22782898,"р-н Советский, Республика Татарстан, Казань, ул. Солидарности, 16"
Вторичка,774,6800000,"балкон, лоджия",раздельный,панельный,,8,,7.2 м²,39.3 м²,9,3,,требует ремонта,2.8 м,,65 м²,1976,55.74796179858864,49.21825271764146,"Республика Татарстан (Татарстан), Казань, ул. Рихарда Зорге, 87"
Вторичка,1123,8000000,балкон,совмещенный,кирпичный,,8,"кухня, хранение одежды, спальные места",10 м²,15 м²,10,1,"открытая во дворе, за шлагбаумом во дворе",евро,2.6 м,водонагреватель,38 м²,2010,55.83069611,49.05614471,"Республика Татарстан, Казань, Окольная ул., 11"
Вторичка,731,3200000,,совмещенный,кирпичный,,2,"кухня, хранение одежды",,17.9 м²,5,студия,открытая во дворе,косметический,2.5 м,стиральная машина,17.9 м²,1972,55.77134705,49.10040283,"Республика Татарстан, Казань, ул. Меховщиков, 7"
Вторичка,6871,6550000,,совмещенный,панельный,,2,,6 м²,30 м²,5,2,,евро,2.7 м,,42.6 м²,1966,55.789846,49.166368,"Республика Татарстан, Казань, ул. Красной Позиции, 9"
Вторичка,1630,7050000,лоджия,раздельный,панельный,,3,кухня,9.7 м²,27.9 м²,,2,открытая во дворе,косметический,2.5 м,"кондиционер, стиральная машина",54.4 м²,1982,55.75601196,49.23711014,"Республика Татарстан, Казань, ул. Академика Завойского, 20"
Вторичка,425,6500000,лоджия,совмещенный,панельный,,5,"кухня, хранение одежды, спальные места",7 м²,20 м²,9,1,открытая во дворе,косметический,,"кондиционер, холодильник, стиральная машина",35.4 м²,2000,55.786359,49.230741,"р-н Советский, Республика Татарстан, Казань, ул. Академика Глушко, 21"
Вторичка,3759,1800000,,совмещенный,кирпичный,,2,,5 м²,,5,1,,требует ремонта,,,17.4 м²,,55.74618149,49.14393616,"Республика Татарстан, Казань, Авангардная ул., 91"
Вторичка,639,5800000,балкон,совмещенный,панельный,,5,кухня,7.3 м²,,5,2,открытая во дворе,косметический,,,45.1 м²,1973,55.755611,49.208831,"Республика Татарстан, Казань, ул. Братьев Касимовых, 64"
Вторичка,1002,3700000,лоджия,совмещенный,кирпичный,,1,"кухня, хранение одежды",10 м²,,5,1,открытая во дворе,требует ремонта,,,39.9 м²,,55.87315369,49.0164299,"р-н Московский, Республика Татарстан, Казань, ул. Химиков, 45"
Вторичка,4477,3500000,,совмещенный,кирпичный,,3,"кухня, хранение одежды, спальные места",,13.3 м²,9,студия,открытая во дворе,евро,,,17.9 м²,1992,55.831807,49.135178,"Республика Татарстан, Казань, ул. Фатыха Амирхана, 12Б"
Вторичка,1083,4999000,,раздельный,кирпичный,,4,"кухня, хранение одежды, спальные места",,24 м²,9,студия,"открытая во дворе, за шлагбаумом во дворе",евро,,"кондиционер, холодильник, стиральная машина",29 м²,1992,55.832111,49.134998,"Республика Татарстан, Казань, ул. Фатыха Амирхана, 12А"
Вторичка,958,6499000,балкон,совмещенный,кирпичный,,3,"кухня, хранение одежды, спальные места",7.4 м²,21.1 м²,10,1,открытая во дворе,косметический,2.7 м,"кондиционер, холодильник, стиральная машина",39.6 м²,1998,55.78491211,49.17906952,"Республика Татарстан, Казань, ул. Аделя Кутуя, 54"
Вторичка,790,8499000,балкон,раздельный,панельный,,8,"кухня, хранение одежды",8.3 м²,29.3 м²,9,2,открытая во дворе,косметический,2.6 м,"кондиционер, водонагреватель",50.8 м²,1979,55.82846149311139,49.13899827292214,"Республика Татарстан (Татарстан), Казань, пр-т Ямашева, 74"
Вторичка,1819,2099000,,совмещенный,кирпичный,,3,"кухня, хранение одежды, спальные места",,8 м²,5,студия,открытая во дворе,дизайнерский,,"холодильник, стиральная машина",10.5 м²,,55.86114883,49.10351181,"Республика Татарстан, Казань, ул. Дементьева, 31"
Вторичка,661,5350000,балкон,совмещенный,кирпичный,,2,,5 м²,17.4 м²,5,1,,евро,,,33 м²,1960,55.855179,49.093757,"Республика Татарстан, Казань, ул. Олега Кошевого, 10"
Вторичка,621,3800000,лоджия,совмещенный,кирпичный,,3,,15 м²,19 м²,3,1,,евро,2.8 м,,42 м²,2015,55.811462,49.434856,"Республика Татарстан (Татарстан), Пестречинский р-н, Шигалеевское сельское поселение, с. Новое Шигалеево, ул. Габдуллы Тукая, 10"
Вторичка,3205,4800000,,совмещенный,кирпичный,,3,кухня,9 м²,14 м²,5,1,открытая во дворе,евро,2.6 м,водонагреватель,26.6 м²,1968,55.77825546,49.17147827,"Республика Татарстан, Казань, Гвардейская ул., 48к2"
Вторичка,234,9700000,лоджия,раздельный,панельный,,8,,7.7 м²,43.1 м²,9,3,открытая во дворе,косметический,2.6 м,,68.5 м²,1986,55.84043503,49.13525772,"Республика Татарстан, Казань, ул. Фатыха Амирхана, 30"
Вторичка,431,6300000,балкон,совмещенный,панельный,,5,"хранение одежды, спальные места",6 м²,30.5 м²,5,2,открытая во дворе,требует ремонта,2.3 м,водонагреватель,46 м²,1968,55.79275131,49.16801071,"Республика Татарстан, Казань, ул. Красной Позиции, 1"
Вторичка,6183,3699000,балкон,совмещенный,кирпичный,,5,,,12 м²,,студия,,евро,,,19 м²,,55.765478,49.150198,"Республика Татарстан, Казань, ул. Павлюхина, 103"
Вторичка,242,3550000,,совмещенный,кирпичный,,1,,6 м²,18 м²,2,1,открытая во дворе,косметический,2.7 м,,32 м²,1958,55.86955643,49.08568954,"Республика Татарстан (Татарстан), Казань, Ново-Караваевская ул., 3А"
Вторичка,1478,5150000,балкон,совмещенный,кирпичный,,6,"кухня, хранение одежды",10 м²,,9,1,открытая во дворе,евро,,,34.3 м²,1975,55.85916138,49.10061264,"Республика Татарстан, Казань, ул. Дементьева, 7"
Вторичка,1241,6299000,балкон,раздельный,кирпичный,,3,,9 м²,25 м²,5,2,открытая во дворе,косметический,2.8 м,,40.2 м²,1974,55.78990555,49.17362595,"Республика Татарстан, Казань, Курская ул., 3"
Вторичка,161,8500000,лоджия,совмещенный,кирпичный,,2,"кухня, хранение одежды",14 м²,,9,1,"подземная, за шлагбаумом во дворе",евро,,"кондиционер, холодильник, стиральная машина",40 м²,,55.80059052,49.20215607,"р-н Советский, Республика Татарстан, Казань, ул. Зур Урам, 1Кк3"
Вторичка,428,6500000,балкон,совмещенный,кирпичный,,5,"кухня, хранение одежды, спальные места",6.5 м²,18 м²,9,1,открытая во дворе,косметический,2.5 м,"холодильник, стиральная машина",31.4 м²,1973,55.78420258,49.15068436,"Республика Татарстан, Казань, ул. Вишневского, 51/1"
Вторичка,971,5999999,балкон,совмещенный,панельный,,1,"кухня, хранение одежды, спальные места",9 м²,15 м²,9,1,открытая во дворе,евро,2.8 м,"кондиционер, холодильник, стиральная машина",34 м²,1998,55.77683891890338,49.2351466024416,"Республика Татарстан (Татарстан), Казань, ул. Академика Глушко, 1"
Вторичка,221,7000000,балкон,совмещенный,кирпичный,,4,"кухня, хранение одежды, спальные места",8.2 м²,18.8 м²,5,1,за шлагбаумом во дворе,косметический,2.6 м,"холодильник, стиральная машина",37 м²,2001,55.8053093,49.20304489,"р-н Советский, Республика Татарстан, Казань, 2-я Азинская ул., 3А"
Вторичка,3298,6799000,,совмещенный,кирпичный,,2,"кухня, хранение одежды",6 м²,6 м²,5,2,открытая во дворе,дизайнерский,2.5 м,"кондиционер, водонагреватель",30 м²,1967,55.795023,49.175441,"Республика Татарстан, Казань, ул. Искра, 8"
Вторичка,1045,8600000,балкон,раздельный,панельный,,1,"кухня, хранение одежды",8.9 м²,38 м²,9,3,открытая во дворе,евро,2.6 м,,63.5 м²,1991,55.76578522,49.22713852,"Республика Татарстан, Казань, Ломжинская ул., 18"
Вторичка,5373,3900000,балкон,раздельный,кирпичный,,6,"кухня, хранение одежды, спальные места",8 м²,22 м²,,2,открытая во дворе,косметический,2.4 м,"холодильник, стиральная машина",30 м²,1975,55.770831,49.095212,"Республика Татарстан (Татарстан), Казань, Портовая ул., 21"
Вторичка,11150,9700000,"балкон, лоджия",раздельный,монолитный,,7,,9.8 м²,54.2 м²,8,4,открытая во дворе,евро,2.7 м,,101.7 м²,1997,55.819863,49.123518,"Республика Татарстан (Татарстан), Казань, Чистопольская ул., 41"
Вторичка,612,8000000,балкон,совмещенный,монолитный,,3,,6 м²,25 м²,17,2,"наземная многоуровневая, открытая во дворе",евро,2.7 м,,44 м²,2020,55.80400848,49.22330093,"р-н Советский, Республика Татарстан, Казань, ул. Архитектора Гайнутдинова, 22"
Вторичка,3882,12500000,балкон,раздельный,кирпичный,,3,,12 м²,42 м²,18,3,,евро,,,70.3 м²,2021,55.80059,49.202156,"р-н Советский, Республика Татарстан, Казань, ул. Зур Урам, 1Кк3"
Вторичка,475,6799725,лоджия,совмещенный,кирпичный,,5,"кухня, хранение одежды, спальные места",9 м²,17.3 м²,10,1,открытая во дворе,евро,2.7 м,"кондиционер, холодильник, стиральная машина",33.6 м²,2013,55.752181,49.246237,"Республика Татарстан, Казань, ул. Салиха Батыева, 5"
Вторичка,11788,7100000,балкон,совмещенный,панельный,,3,"кухня, хранение одежды, спальные места",6.5 м²,30 м²,5,2,,евро,2.6 м,"кондиционер, холодильник, стиральная машина, водонагреватель",44.9 м²,1979,55.756057,49.207951,"Республика Татарстан, Казань, ул. Братьев Касимовых, 60"
Вторичка,2318,7190000,лоджия,совмещенный,кирпичный,,9,"кухня, хранение одежды, спальные места",11 м²,23 м²,17,1,подземная,косметический,2.7 м,"холодильник, стиральная машина",39.8 м²,2015,55.75046539,49.18465805,"Республика Татарстан, Казань, ул. Профессора Камая, 8А"
Вторичка,5194,4000000,балкон,совмещенный,кирпичный,,4,,6 м²,18 м²,5,1,,требует ремонта,,,31.9 м²,1962,55.743132,49.142266,"Республика Татарстан, Казань, ул. Владимира Кулагина, 4"
Вторичка,771,5800000,балкон,совмещенный,кирпичный,,3,кухня,6 м²,27.7 м²,5,2,открытая во дворе,требует ремонта,2.7 м,"холодильник, стиральная машина",44.2 м²,1960,55.824086,49.084917,"Республика Татарстан (Татарстан), Казань, ул. Декабристов, 121"
Новостройки,17357,6000000,лоджия,совмещенный,монолитно-кирпичный,без отделки,3,,17 м²,12 м²,16,1,наземная многоуровневая,,2.8 м,,40.7 м²,,55.78380992991919,49.19715657074117,"Республика Татарстан (Татарстан), Казань, пр-т Альберта Камалеева"
Вторичка,1923,8850000,лоджия,совмещенный,монолитно-кирпичный,,3,"кухня, хранение одежды, спальные места",12.2 м²,19.1 м²,19,1,"подземная, наземная многоуровневая, открытая во дворе, за шлагбаумом во дворе",косметический,2.8 м,"кондиционер, холодильник",41.8 м²,2022,55.723876,49.175836,"Республика Татарстан, Казань, ул. Рауиса Гареева, 113"
Вторичка,690,6899000,балкон,раздельный,кирпичный,,4,кухня,5.7 м²,30.5 м²,5,2,открытая во дворе,евро,,кондиционер,45 м²,1968,55.82743835,49.07315826,"Республика Татарстан, Казань, ул. Шамиля Усманова, 11Б"
Вторичка,453,7850000,балкон,раздельный,кирпичный,,3,,7.7 м²,29.6 м²,5,2,открытая во дворе,евро,2.6 м,,51.8 м²,,55.86634827,49.09275055,"Республика Татарстан, Казань, ул. Лукина, 37"
Вторичка,405,7000000,,совмещенный,кирпичный,,2,"кухня, спальные места",16 м²,31.9 м²,14,1,открытая во дворе,косметический,2.6 м,холодильник,47.9 м²,,55.80023956,49.24583435,"р-н Советский, Республика Татарстан, Казань, ул. Натана Рахлина, 3"
Вторичка,7445,7000000,балкон,совмещенный,панельный,,6,"кухня, хранение одежды, спальные места",7 м²,25 м²,9,2,открытая во дворе,косметический,2.7 м,"холодильник, стиральная машина",41.8 м²,,55.82900516835029,49.15674639592271,"р-н Ново-Савиновский, Республика Татарстан (Татарстан), Казань, пр-т Ямашева, 112"
Вторичка,563,3690000,"балкон, лоджия",совмещенный,кирпичный,,5,"кухня, хранение одежды, спальные места",,,5,студия,открытая во дворе,евро,,"холодильник, стиральная машина",22.8 м²,1971,55.86215334125161,49.099553153327584,"Республика Татарстан (Татарстан), Казань, Авиастроительный район, Молодёжная ул., 10"
Вторичка,2861,2400000,,совмещенный,кирпичный,,4,,,7 м²,9,студия,,евро,,,12 м²,1976,55.858948,49.101419,"Республика Татарстан, Казань, ул. Дементьева, 7А"
Вторичка,1728,8900000,балкон,раздельный,панельный,,2,"кухня, хранение одежды, спальные места",15 м²,,9,3,открытая во дворе,евро,,"кондиционер, водонагреватель",66.9 м²,1981,55.829423968764864,49.14945905999541,"р-н Ново-Савиновский, Республика Татарстан (Татарстан), Казань, ул. Адоратского, 8"
Вторичка,525,9490000,балкон,совмещенный,кирпичный,,3,"кухня, хранение одежды",13 м²,23 м²,9,1,"наземная многоуровневая, открытая во дворе",евро,2.7 м,"кондиционер, водонагреватель",45.3 м²,2013,55.82264328,49.06864166,"Республика Татарстан, Казань, ул. Галимджана Баруди, 18"
Вторичка,961,3900000,,совмещенный,кирпичный,,4,"кухня, хранение одежды, спальные места",,14 м²,5,студия,открытая во дворе,евро,2.6 м,,18.2 м²,,55.7904129,49.17442703,"Республика Татарстан, Казань, ул. Гастелло, 20"
Вторичка,7451,3590000,,совмещенный,кирпичный,,5,,,10 м²,5,студия,,евро,3 м,,18.8 м²,,55.76910566198684,49.14481639291505,"Республика Татарстан (Татарстан), Казань, ул. Павлюхина, 108"
Вторичка,6151,2990000,,совмещенный,кирпичный,,5,"кухня, хранение одежды, спальные места",2 м²,,5,1,открытая во дворе,евро,,"холодильник, стиральная машина",20 м²,1963,55.83785248,49.10262299,"Республика Татарстан, Казань, ул. Короленко, 40"
Вторичка,1262,4990000,,совмещенный,кирпичный,,3,"кухня, хранение одежды, спальные места",5 м²,11 м²,9,1,открытая во дворе,евро,2.6 м,"кондиционер, холодильник, стиральная машина, водонагреватель",20 м²,1976,55.789745,49.175719,"Республика Татарстан (Татарстан), Казань, ул. Шуртыгина, 24"
Вторичка,911,6900000,балкон,совмещенный,панельный,,5,кухня,5.9 м²,29.1 м²,5,2,открытая во дворе,требует ремонта,,кондиционер,45.4 м²,1971,55.821214,49.100287,"Республика Татарстан, Казань, ул. Короленко, 11"
Вторичка,2865,2900000,,совмещенный,кирпичный,,2,,4 м²,,5,1,открытая во дворе,евро,,стиральная машина,18.6 м²,,55.83785248,49.10262299,"Республика Татарстан, Казань, ул. Короленко, 40"
Вторичка,6887,4450000,,раздельный,монолитно-кирпичный,,7,"кухня, хранение одежды, спальные места",,19 м²,9,студия,открытая во дворе,косметический,2.5 м,"холодильник, стиральная машина",30 м²,,55.78020477,49.10776901,"Республика Татарстан, Казань, ул. Нариманова, 66А"
Вторичка,2040,8300000,балкон,совмещенный,панельный,,4,"кухня, спальные места",8.6 м²,15.1 м²,19,1,открытая во дворе,евро,,"холодильник, стиральная машина, посудомоечная машина",31.7 м²,2019,55.784501,49.193946,"Республика Татарстан, Казань, пр-т Альберта Камалеева, 32"
Вторичка,2164,4150000,балкон,совмещенный,кирпичный,,4,"кухня, хранение одежды, спальные места",7 м²,20 м²,5,1,открытая во дворе,требует ремонта,2.6 м,"холодильник, стиральная машина",33 м²,1961,55.82592406118909,49.030248201235906,"Республика Татарстан (Татарстан), Казань, ул. Горьковское Шоссе, 41"
Вторичка,8227,8300000,лоджия,раздельный,кирпичный,,6,кухня,9 м²,32 м²,10,2,подземная,косметический,2.7 м,,54 м²,2018,55.79144423277085,49.24746405720115,"р-н Советский, Республика Татарстан, Казань, ул. Азата Аббасова, 10"
Вторичка,117,6300000,,совмещенный,панельный,,2,"кухня, хранение одежды, спальные места",6 м²,18 м²,5,1,открытая во дворе,косметический,,"кондиционер, стиральная машина",32 м²,1963,55.828956,49.08772,"Республика Татарстан (Татарстан), Казань, Волгоградская ул., 13"
Вторичка,465,6900000,балкон,совмещенный,панельный,,3,"кухня, хранение одежды",8 м²,,10,1,открытая во дворе,косметический,,,33 м²,1994,55.82382202,49.12282562,"Республика Татарстан, Казань, ул. Четаева, 33"
Вторичка,1020,5999900,,совмещенный,кирпичный,,1,кухня,6 м²,18 м²,5,1,открытая во дворе,евро,2.5 м,,32 м²,,55.8092804,49.08040619,"Республика Татарстан, Казань, Кировский район, Шоссейная ул., 19А"
Вторичка,1429,3700000,,совмещенный,кирпичный,,2,"кухня, хранение одежды, спальные места",,12 м²,10,студия,открытая во дворе,дизайнерский,,,18 м²,,55.756113,49.214805,"Республика Татарстан, Казань, пр-т Победы, 47"
Вторичка,1051,5490000,лоджия,совмещенный,панельный,,5,,12 м²,,18,1,,,,,44 м²,,55.865556,48.881611,"р-н Кировский, Республика Татарстан, Казань, ул. Айрата Арсланова, 8"
Вторичка,1972,2750000,,совмещенный,кирпичный,,1,"кухня, хранение одежды, спальные места",,13 м²,5,студия,открытая во дворе,евро,2.4 м,"холодильник, стиральная машина, водонагреватель",15 м²,1986,55.81392350256969,49.184128602439216,"р-н Советский, Республика Татарстан (Татарстан), Казань, ул. Академика Арбузова, 10"
Вторичка,2789,3500000,,совмещенный,кирпичный,,5,кухня,,12 м²,9,студия,открытая во дворе,косметический,2.7 м,стиральная машина,18 м²,1979,55.75614166,49.19048691,"Республика Татарстан, Казань, ул. Братьев Касимовых, 22/7"
Вторичка,3802,8350000,лоджия,совмещенный,кирпичный,,7,"кухня, хранение одежды, спальные места",7.4 м²,27.9 м²,9,2,открытая во дворе,требует ремонта,2.5 м,"кондиционер, холодильник, стиральная машина, водонагреватель",51.3 м²,,55.742448,49.220087,"Республика Татарстан, Казань, ул. Рихарда Зорге, 100к1"
Вторичка,2334,6699999,балкон,"совмещенный, раздельный",кирпичный,,5,,6 м²,35 м²,6,2,открытая во дворе,дизайнерский,2.7 м,,43 м²,1965,55.83236694,49.05902863,"Республика Татарстан, Казань, ул. Восстания, 93"
Вторичка,2334,7750000,лоджия,раздельный,панельный,,5,,9.4 м²,28.2 м²,9,2,"наземная многоуровневая, открытая во дворе",требует ремонта,2.5 м,,49.7 м²,1989,55.75030136,49.21159744,"Республика Татарстан, Казань, пр-т Победы, 56"
Вторичка,182,4450000,,совмещенный,панельный,,3,"кухня, хранение одежды, спальные места",13.7 м²,13.2 м²,3,1,открытая во дворе,евро,,кондиционер,44.6 м²,2019,55.708385458399505,49.33609020331225,"Республика Татарстан (Татарстан), Пестречинский р-н, Богородское сельское поселение, д. Куюки, 13-й квартал, 4"
Вторичка,5802,4890000,,совмещенный,кирпичный,,3,,,,5,студия,,дизайнерский,,,27 м²,1978,55.83792877,49.10501099,"Республика Татарстан, Казань, ул. Голубятникова, 11А"
Вторичка,943,5990000,,раздельный,кирпичный,,4,,2 м²,28.3 м²,9,2,открытая во дворе,косметический,2.5 м,,36.9 м²,1984,55.75715256,49.19405365,"Республика Татарстан, Казань, ул. Рихарда Зорге, 24"
Вторичка,2812,5299000,балкон,совмещенный,монолитно-кирпичный,,7,"кухня, хранение одежды, спальные места",10 м²,,18,1,открытая во дворе,косметический,,,41 м²,2018,55.85451508,48.89963913,"р-н Кировский, Республика Татарстан, Казань, ул. Наиля Юсупова, 9"
Вторичка,1990,5900000,балкон,совмещенный,кирпичный,,4,"кухня, хранение одежды, спальные места",6 м²,28 м²,5,2,открытая во дворе,косметический,,,45 м²,1967,55.805407,49.176752,"р-н Советский, Республика Татарстан (Татарстан), Казань, ул. Новаторов, 8"
Вторичка,1287,5999999,,совмещенный,панельный,,1,"кухня, хранение одежды, спальные места",6 м²,31 м²,5,2,открытая во дворе,евро,2.7 м,"кондиционер, холодильник, стиральная машина, водонагреватель",46 м²,1962,55.83663177,49.09072113,"Республика Татарстан, Казань, ул. Гагарина, 79А"
Вторичка,7572,5400000,балкон,совмещенный,панельный,,3,,6 м²,28.9 м²,5,2,открытая во дворе,требует ремонта,2.7 м,,42.9 м²,1974,55.751138,49.199183,"Республика Татарстан (Татарстан), Казань, ул. Гарифьянова, 28"
Вторичка,2307,4200000,балкон,совмещенный,панельный,,4,"кухня, хранение одежды, спальные места",5 м²,10 м²,9,1,открытая во дворе,косметический,,холодильник,20.7 м²,,55.8603363,49.10073853,"Республика Татарстан (Татарстан), Казань, ул. Дементьева, 33А"
Вторичка,1189,4850000,балкон,совмещенный,кирпичный,,9,"кухня, хранение одежды, спальные места",,,9,студия,открытая во дворе,дизайнерский,,"холодильник, стиральная машина",27.2 м²,1995,55.74888229,49.14179993,"Республика Татарстан, Казань, Модельная ул., 10"
Вторичка,2063,6700000,балкон,совмещенный,монолитный,,17,"кухня, хранение одежды, спальные места",8 м²,16 м²,19,1,,евро,,"кондиционер, посудомоечная машина, водонагреватель",32 м²,2020,55.802158,49.237532,"р-н Советский, Республика Татарстан (Татарстан), Казань, ул. Александра Курынова, 10к2"
Вторичка,384,3600000,,совмещенный,кирпичный,,4,кухня,,15.5 м²,9,студия,открытая во дворе,евро,2.6 м,стиральная машина,18 м²,1974,55.75668335,49.21391678,"Республика Татарстан, Казань, ул. Братьев Касимовых, 82"
Вторичка,2130,7900000,балкон,раздельный,кирпичный,,4,кухня,7 м²,50 м²,5,3,открытая во дворе,евро,2.7 м,,62 м²,1973,55.787477,49.172755,"Республика Татарстан, Казань, ул. Аделя Кутуя, 33"
Вторичка,431,4480000,балкон,совмещенный,кирпичный,,6,"кухня, хранение одежды, спальные места",7 м²,,9,1,открытая во дворе,евро,,"кондиционер, холодильник, стиральная машина",29.4 м²,,55.86089706,49.10064697,"Республика Татарстан, Казань, Авиастроительный район, Молодёжная ул., 14Б"
Вторичка,2026,4100000,,совмещенный,панельный,,2,кухня,5.8 м²,18.6 м²,5,1,открытая во дворе,косметический,2.5 м,"кондиционер, водонагреватель",33.7 м²,1964,55.868152,49.019367,"р-н Московский, Республика Татарстан, Казань, ул. Гудованцева, 21"
Вторичка,2545,6890000,,совмещенный,кирпичный,,2,"кухня, хранение одежды, спальные места",7 м²,15 м²,9,1,открытая во дворе,евро,2.7 м,"кондиционер, холодильник, стиральная машина, водонагреватель",30 м²,1972,55.8298912,49.09287643,"Республика Татарстан, Казань, пр-т Ибрагимова, 45"
Вторичка,354,6500000,балкон,совмещенный,панельный,,9,"кухня, хранение одежды, спальные места",9 м²,16 м²,10,1,открытая во дворе,косметический,2.7 м,"кондиционер, холодильник, стиральная машина",35 м²,2004,55.7684021,49.24341583,"Республика Татарстан (Татарстан), Казань, ул. Ноксинский Спуск, 28"
Вторичка,9006,4290000,,совмещенный,панельный,,6,"кухня, хранение одежды, спальные места",4 м²,10 м²,7,1,открытая во дворе,дизайнерский,2.6 м,стиральная машина,17 м²,2002,55.795332,49.229447,"р-н Советский, Республика Татарстан, Казань, Мамадышский тракт, 36"
Вторичка,3280,7590000,"балкон, лоджия",совмещенный,панельный,,9,"кухня, хранение одежды, спальные места",9 м²,14 м²,10,1,открытая во дворе,дизайнерский,2.7 м,"кондиционер, холодильник, стиральная машина",35.4 м²,2003,55.77072144,49.23923111,"Республика Татарстан, Казань, ул. Ноксинский Спуск, 27"
Вторичка,1264,10100000,балкон,совмещенный,монолитно-кирпичный,,13,"кухня, спальные места",8.5 м²,15.7 м²,20,1,подземная,евро,2.7 м,"кондиционер, стиральная машина",35.8 м²,2021,55.83357239,49.10185242,"Республика Татарстан, Казань, ул. Короленко, 28Б"
Вторичка,13627,5700000,балкон,совмещенный,панельный,,5,"кухня, хранение одежды, спальные места",6 м²,30 м²,5,2,открытая во дворе,косметический,2.5 м,"кондиционер, водонагреватель",43 м²,1967,55.82219315,49.04610825,"Республика Татарстан, Казань, Кировский район, Светлая ул., 28"
Вторичка,315,8700000,лоджия,совмещенный,монолитный,,11,"кухня, хранение одежды, спальные места",15.8 м²,17.8 м²,16,1,за шлагбаумом во дворе,евро,2.8 м,"холодильник, водонагреватель",50.3 м²,2011,55.74228668,49.20104218,"Республика Татарстан, Казань, ул. Юлиуса Фучика, 2Б"
Вторичка,3506,7600000,балкон,раздельный,кирпичный,,5,,5.9 м²,42.4 м²,9,3,открытая во дворе,требует ремонта,2.5 м,,60.1 м²,1971,55.759932,49.17977,"Республика Татарстан (Татарстан), Казань, ул. Карбышева, 17"
Вторичка,6186,7400000,лоджия,раздельный,кирпичный,,7,"кухня, спальные места",8 м²,20 м²,14,1,открытая во дворе,евро,2.6 м,холодильник,42 м²,1989,55.83716965,49.11968231,"Республика Татарстан, Казань, ул. Мусина, 69к2"
Вторичка,405,8300000,лоджия,раздельный,кирпичный,,3,"кухня, хранение одежды, спальные места",9 м²,,14,2,открытая во дворе,косметический,2.8 м,холодильник,59.8 м²,1988,55.837166,49.121937,"Республика Татарстан (Татарстан), Казань, ул. Мусина, 68А"
Вторичка,544,2350000,,совмещенный,кирпичный,,1,кухня,,11 м²,5,студия,открытая во дворе,дизайнерский,2.6 м,водонагреватель,13 м²,1978,55.834633,49.202686,"р-н Советский, Республика Татарстан, Казань, Агрызская ул., 78"
Вторичка,437,5700000,балкон,совмещенный,кирпичный,,5,кухня,6 м²,20 м²,5,1,открытая во дворе,косметический,2.5 м,"кондиционер, холодильник, стиральная машина",30 м²,,55.814491074758195,49.18348464780439,"р-н Советский, Республика Татарстан (Татарстан), Казань, ул. Академика Арбузова, 6"
Вторичка,1798,6650000,балкон,совмещенный,панельный,,2,,5 м²,32 м²,5,2,открытая во дворе,требует ремонта,2.5 м,водонагреватель,45 м²,,55.762394,49.173797,"Республика Татарстан, Казань, ул. Латышских Стрелков, 11"
Вторичка,95,5900000,балкон,совмещенный,кирпичный,,2,"кухня, хранение одежды, спальные места",8 м²,17.6 м²,3,1,,косметический,,"кондиционер, холодильник, стиральная машина",32 м²,1988,55.76897607225178,49.18252019510648,"Республика Татарстан (Татарстан), Казань, Отрадная ул., 50"
Вторичка,419,3730000,,совмещенный,кирпичный,,1,кухня,,18.4 м²,5,студия,открытая во дворе,косметический,2.7 м,,18.4 м²,1978,55.7904129,49.17442703,"Республика Татарстан, Казань, ул. Гастелло, 20"
Вторичка,2249,4455000,лоджия,совмещенный,панельный,,1,"кухня, хранение одежды, спальные места",5.6 м²,17.8 м²,9,1,открытая во дворе,косметический,2.5 м,стиральная машина,32.5 м²,1991,55.87734222,49.06305313,"Республика Татарстан (Татарстан), Казань, ул. Литвинова, 55"
Вторичка,179,3600000,балкон,совмещенный,кирпичный,,1,"кухня, хранение одежды, спальные места",,,3,студия,открытая во дворе,евро,,"холодильник, стиральная машина",21 м²,2019,55.80925751,49.43236923,"Республика Татарстан, Пестречинский р-н, Шигалеевское сельское поселение, с. Новое Шигалеево, ул. Габдуллы Тукая, 7"
Вторичка,3278,5690000,балкон,совмещенный,кирпичный,,4,"кухня, хранение одежды",7 м²,13 м²,9,1,,косметический,,кондиционер,30 м²,1986,55.81403732,49.06794739,"Республика Татарстан, Казань, Краснококшайская ул., 83"
Вторичка,3937,3390000,,совмещенный,кирпичный,,7,кухня,,,9,студия,открытая во дворе,дизайнерский,,холодильник,17 м²,,55.84030914,49.102211,"Республика Татарстан, Казань, ул. Короленко, 52А"
Вторичка,3951,8390000,,"совмещенный, раздельный",панельный,,17,"кухня, хранение одежды, спальные места",12 м²,40 м²,17,2,открытая во дворе,евро,2.7 м,"кондиционер, холодильник, стиральная машина, водонагреватель",56 м²,2000,55.76380539,49.22060776,"Республика Татарстан, Казань, пр-т Победы, 78"
Вторичка,564,9990000,лоджия,совмещенный,монолитно-кирпичный,,5,,9.5 м²,30 м²,,2,"наземная многоуровневая, за шлагбаумом во дворе",требует ремонта,2.7 м,,59 м²,2024,55.826306729803264,49.04228692876157,"Республика Татарстан (Татарстан), Казань, ул. Горьковское Шоссе, 2Ак3"
Вторичка,536,5999000,балкон,раздельный,панельный,,4,"кухня, хранение одежды, спальные места",7 м²,,5,2,открытая во дворе,дизайнерский,,стиральная машина,44.9 м²,,55.85221863,49.06987762,"Республика Татарстан (Татарстан), Казань, ул. Белинского, 37"
Вторичка,13807,8800000,"балкон, лоджия",раздельный,кирпичный,,5,"кухня, хранение одежды, спальные места",9.6 м²,49.7 м²,7,3,открытая во дворе,косметический,2.6 м,,75 м²,2001,55.79039383,49.22571182,"р-н Советский, Республика Татарстан, Казань, ул. Хайдара Бигичева, 30"
Вторичка,406,7200000,балкон,совмещенный,панельный,,2,,8 м²,18 м²,9,1,,косметический,,холодильник,35 м²,,55.823833,49.130022,"Республика Татарстан (Татарстан), Казань, ул. Четаева, 25"
Вторичка,4297,3500000,,совмещенный,кирпичный,,5,,,12 м²,5,студия,,евро,,,17 м²,,55.770633,49.103908,"Республика Татарстан, Казань, ул. Мазита Гафури, 7"
Вторичка,583,7199000,балкон,раздельный,кирпичный,,14,"кухня, спальные места",8 м²,20 м²,15,1,открытая во дворе,дизайнерский,2.5 м,,40 м²,1990,55.83638382,49.10599899,"Республика Татарстан, Казань, ул. Маршала Чуйкова, 5"
Вторичка,258,6690000,,совмещенный,кирпичный,,1,"кухня, хранение одежды, спальные места",6 м²,31 м²,5,2,открытая во дворе,требует ремонта,,,46 м²,1965,55.78861237,49.15744019,"Республика Татарстан, Казань, Товарищеская ул., 9/42"
Вторичка,2634,3670000,,совмещенный,кирпичный,,3,кухня,,,,студия,открытая во дворе,евро,2.6 м,,18 м²,,55.78172684,49.1841011,"Республика Татарстан (Татарстан), Казань, ул. Аделя Кутуя, 86А"
Вторичка,1321,4150000,,совмещенный,кирпичный,,2,кухня,9 м²,,5,1,открытая во дворе,евро,,,23 м²,,55.81742477,49.08102798,"Республика Татарстан, Казань, ул. Дежнёва, 4к1"
Вторичка,6838,6000000,лоджия,совмещенный,монолитно-кирпичный,,4,,8 м²,16 м²,19,1,наземная многоуровневая,требует ремонта,2.7 м,,32 м²,2024,55.804329,49.236769,"р-н Советский, Республика Татарстан (Татарстан), Казань, ул. Натана Рахлина, 15к2"
Вторичка,3798,5800000,,совмещенный,кирпичный,,1,"кухня, хранение одежды, спальные места",5 м²,27 м²,12,1,открытая во дворе,евро,2.6 м,"кондиционер, холодильник, стиральная машина, водонагреватель",33 м²,1987,55.82879257,49.12220764,"Республика Татарстан, Казань, ул. Мусина, 59Бк2"
Вторичка,400,5400000,балкон,совмещенный,монолитный,,4,,7 м²,14 м²,12,1,"открытая во дворе, за шлагбаумом во дворе",требует ремонта,3 м,,28 м²,2019,55.851924,49.066367,"Республика Татарстан, Казань, Тэцевская ул., 4А"
Вторичка,1452,5970000,,,кирпичный,,4,,7.7 м²,20 м²,14,1,,косметический,,,36.4 м²,1988,55.82708,49.058103,"Республика Татарстан (Татарстан), Казань, ул. Кулахметова, 22"
Вторичка,1574,4500000,,совмещенный,кирпичный,,1,"кухня, хранение одежды, спальные места",,15 м²,9,студия,открытая во дворе,косметический,,"кондиционер, холодильник, стиральная машина, водонагреватель",20.3 м²,1972,55.77353,49.136355,"Республика Татарстан (Татарстан), Казань, ул. Нурсултана Назарбаева, 56"
Вторичка,1481,3299999,,совмещенный,кирпичный,,3,кухня,,,5,студия,,дизайнерский,2.5 м,,18 м²,,55.78155518,49.18403625,"Республика Татарстан, Казань, ул. Аделя Кутуя, 86А"
Вторичка,2386,7200000,балкон,совмещенный,панельный,,4,,11.2 м²,16.4 м²,9,1,,евро,,,39.4 м²,2001,55.792007,49.225153,"р-н Советский, Республика Татарстан, Казань, ул. Джаудата Файзи, 11"
Вторичка,743,3500000,,совмещенный,панельный,,1,кухня,,17 м²,9,студия,открытая во дворе,евро,,стиральная машина,19 м²,1983,55.827975,49.150557,"р-н Ново-Савиновский, Республика Татарстан (Татарстан), Казань, пр-т Ямашева, 94"
Вторичка,880,6400000,лоджия,раздельный,монолитный,,6,"кухня, хранение одежды, спальные места",13 м²,30 м²,18,2,открытая во дворе,косметический,2.7 м,"холодильник, стиральная машина",64 м²,2018,55.86766052,48.88011932,"р-н Кировский, Республика Татарстан, Казань, ул. Тансык, 5"
Вторичка,324,7980000,лоджия,раздельный,панельный,,5,,7.9 м²,,9,2,открытая во дворе,евро,,,52.6 м²,2000,55.78629684,49.2244873,"р-н Советский, Республика Татарстан, Казань, ул. Хайдара Бигичева, 16"
Вторичка,921,6200000,,совмещенный,кирпичный,,1,"кухня, хранение одежды, спальные места",5 м²,25 м²,2,1,открытая во дворе,дизайнерский,3 м,"холодильник, стиральная машина, водонагреватель",30 м²,,55.79295830028026,49.17522216854553,"Республика Татарстан (Татарстан), Казань, ул. Патриса Лумумбы, 34"
Вторичка,6897,3450000,,совмещенный,кирпичный,,1,"кухня, хранение одежды, спальные места",9 м²,9 м²,10,1,открытая во дворе,евро,,"кондиционер, холодильник, стиральная машина",20 м²,,55.791055073528355,49.221221896006945,"р-н Советский, Республика Татарстан (Татарстан), Казань, пр-т Победы, 178Б"
Вторичка,177,8000000,,совмещенный,кирпичный,,1,"кухня, хранение одежды, спальные места",11.5 м²,17.2 м²,5,2,за шлагбаумом во дворе,косметический,2.6 м,,49.6 м²,1976,55.80034637,49.05951309,"Республика Татарстан, Казань, Мало-Московская ул., 14А"
Вторичка,716,3100000,,совмещенный,кирпичный,,7,кухня,3 м²,17 м²,9,1,открытая во дворе,косметический,2.6 м,,25 м²,1979,55.74772263,49.14373779,"Республика Татарстан, Казань, Авангардная ул., 87"
Вторичка,289,12200000,балкон,совмещенный,кирпичный,,9,"кухня, хранение одежды, спальные места",13.1 м²,17.6 м²,9,1,наземная многоуровневая,евро,2.7 м,"кондиционер, холодильник, стиральная машина",45.7 м²,2015,55.76748162339581,49.14974179801606,"Республика Татарстан (Татарстан), Казань, ул. Павлюхина, 99Б"
Вторичка,2582,8199000,лоджия,совмещенный,монолитный,,7,,17 м²,20 м²,18,2,,дизайнерский,,,47.1 м²,2021,55.803368,49.240254,"р-н Советский, Республика Татарстан, Казань, ул. Натана Рахлина, 13"
Вторичка,422,9400000,,совмещенный,монолитный,,2,,,,5,студия,подземная,дизайнерский,,,39 м²,2021,55.813673,49.062163,"Республика Татарстан, Казань, ул. 25 Октября, 5Ак2"
Вторичка,483,10790000,лоджия,совмещенный,кирпичный,,4,"кухня, хранение одежды, спальные места",8.6 м²,24 м²,9,1,открытая во дворе,евро,2.7 м,"холодильник, стиральная машина, водонагреватель",49 м²,2008,55.82384872,49.15520859,"р-н Ново-Савиновский, Республика Татарстан, Казань, Чистопольская ул., 85А"
Вторичка,1140,7150000,лоджия,совмещенный,кирпичный,,15,"кухня, хранение одежды, спальные места",8 м²,,,1,"подземная, наземная многоуровневая, открытая во дворе",косметический,2.5 м,"холодильник, стиральная машина",43 м²,2006,55.78154933446359,49.22100776911239,"Республика Татарстан (Татарстан), Казань, пр-т Победы, 152/33"
Вторичка,3367,12000000,балкон,раздельный,кирпичный,,2,,10 м²,,6,3,за шлагбаумом во дворе,косметический,3 м,,65 м²,,55.781772,49.115388,"Республика Татарстан (Татарстан), Казань, Вахитовский район, ул. Татарстан, 3/2"
Вторичка,1365,10500000,,совмещенный,монолитно-кирпичный,,19,"кухня, спальные места",12 м²,32 м²,25,2,"подземная, открытая во дворе",дизайнерский,2.5 м,,50 м²,2022,55.72292797991988,49.184543317443804,"Республика Татарстан (Татарстан), Казань, ул. Братьев Батталовых, 20Ак2"
Вторичка,307,12000000,лоджия,совмещенный,панельный,,9,"кухня, хранение одежды, спальные места",20 м²,20 м²,9,3,открытая во дворе,дизайнерский,2.5 м,"кондиционер, холодильник, стиральная машина, посудомоечная машина, водонагреватель",64 м²,1973,55.82872772,49.12702179,"Республика Татарстан, Казань, пр-т Ямашева, 58"
Вторичка,9239,3950000,,совмещенный,кирпичный,,9,,11.2 м²,16 м²,9,1,открытая во дворе,требует ремонта,2.5 м,,33.1 м²,1978,55.83079147,49.05235291,"Республика Татарстан, Казань, ул. Восстания, 119А"
Вторичка,356,8740000,лоджия,совмещенный,панельный,,3,"кухня, хранение одежды",9.1 м²,19.2 м²,10,1,за шлагбаумом во дворе,евро,,,38 м²,,55.822898931756846,49.109633357961044,"Республика Татарстан (Татарстан), Казань, ул. Абсалямова, 31"
Вторичка,1541,5800000,балкон,совмещенный,панельный,,3,"кухня, хранение одежды, спальные места",9.2 м²,19 м²,7,1,открытая во дворе,косметический,,водонагреватель,38.6 м²,2003,55.793348,49.229366,"р-н Советский, Республика Татарстан (Татарстан), Казань, пер. Дуслык, 6"
Вторичка,400,6500000,,совмещенный,кирпичный,,2,,3 м²,,3,1,,требует ремонта,3.5 м,,20 м²,,55.788808,49.11926,"Республика Татарстан (Татарстан), Казань, ул. Баумана, 41"
Вторичка,289,7800000,лоджия,совмещенный,монолитно-кирпичный,,5,"кухня, хранение одежды",13 м²,20 м²,10,1,за шлагбаумом во дворе,евро,2.7 м,,36 м²,,55.79549408,49.25165176,"р-н Советский, Республика Татарстан, Казань, ул. Фикрята Табеева, 1"
Вторичка,133,6500000,лоджия,совмещенный,блочный,,8,"кухня, хранение одежды, спальные места",8 м²,18 м²,9,1,открытая во дворе,евро,,кондиционер,35 м²,1985,55.84188843,49.14178848,"Республика Татарстан (Татарстан), Казань, ул. Адоратского, 49"
Вторичка,688,10300000,лоджия,раздельный,кирпичный,,2,"кухня, хранение одежды, спальные места",9 м²,29.5 м²,5,2,за шлагбаумом во дворе,косметический,,"кондиционер, холодильник, стиральная машина, водонагреватель",53.6 м²,2001,55.823924,49.127515,"Республика Татарстан (Татарстан), Казань, ул. Четаева, 27А"
Вторичка,426,4100000,балкон,совмещенный,кирпичный,,5,,6.4 м²,38 м²,5,3,открытая во дворе,требует ремонта,2.5 м,,56.6 м²,1966,55.81959534,48.88385773,"р-н Кировский, Республика Татарстан, Казань, Бирюзовая ул., 23"
Вторичка,660,4750000,балкон,совмещенный,панельный,,4,"кухня, хранение одежды",5.5 м²,23.2 м²,5,1,открытая во дворе,косметический,2.6 м,водонагреватель,31.3 м²,1970,55.86013412,49.22932053,"р-н Советский, Республика Татарстан (Татарстан), Казань, ул. Солидарности, 18"
Вторичка,288,5899000,лоджия,совмещенный,монолитно-кирпичный,,3,"кухня, хранение одежды",8 м²,12 м²,12,1,за шлагбаумом во дворе,косметический,3 м,,27 м²,2019,55.85199,49.064948,"Республика Татарстан (Татарстан), Казань, Тэцевская ул., 4А"
Вторичка,1508,7350000,лоджия,совмещенный,кирпичный,,5,"кухня, хранение одежды, спальные места",13.5 м²,18.5 м²,15,1,"открытая во дворе, за шлагбаумом во дворе",косметический,,кондиционер,51.2 м²,1999,55.76889038,49.22083282,"Республика Татарстан, Казань, пр-т Победы, 100"
Вторичка,895,3799000,балкон,совмещенный,кирпичный,,9,,6.5 м²,14 м²,9,1,,требует ремонта,2.6 м,,28 м²,,55.86053467,49.0729866,"Республика Татарстан (Татарстан), Казань, ул. Побежимова, 59"
Новостройки,840,3700000,,совмещенный,монолитно-кирпичный,предчистовая,6,,,11.6 м²,13,студия,"наземная многоуровневая, открытая во дворе",,2.7 м,,23.7 м²,,55.72721241816379,49.17890821848406,"Республика Татарстан (Татарстан), Казань, Приволжский район"
Вторичка,491,10500000,балкон,раздельный,монолитно-кирпичный,,7,"кухня, хранение одежды, спальные места",9.5 м²,40 м²,10,2,за шлагбаумом во дворе,евро,2.6 м,"кондиционер, холодильник, стиральная машина, посудомоечная машина, водонагреватель",51 м²,2006,55.82551575,49.12425613,"Республика Татарстан, Казань, пр-т Ямашева, 51"
Вторичка,279,6999000,балкон,совмещенный,панельный,,2,кухня,8 м²,18 м²,10,1,открытая во дворе,косметический,,"кондиционер, водонагреватель",33.5 м²,1997,55.82457352,49.115345,"Республика Татарстан, Казань, Ново-Савиновский район, Меридианная ул., 13"
Вторичка,1882,10200000,лоджия,совмещенный,кирпичный,,3,"кухня, хранение одежды, спальные места",12 м²,40 м²,10,2,открытая во дворе,евро,2.7 м,"кондиционер, холодильник, стиральная машина, водонагреватель",62 м²,2001,55.82627487,49.05497742,"Республика Татарстан, Казань, ул. Кулахметова, 17к3"
Вторичка,682,11200000,лоджия,совмещенный,панельный,,5,"кухня, спальные места",15 м²,,10,3,открытая во дворе,евро,2.7 м,,74.3 м²,1999,55.7844553246484,49.221104129945374,"р-н Советский, Республика Татарстан (Татарстан), Казань, пр-т Победы, 158"
Вторичка,1310,7000000,лоджия,совмещенный,монолитно-кирпичный,,17,кухня,12.4 м²,19.1 м²,18,1,"наземная многоуровневая, открытая во дворе, за шлагбаумом во дворе",косметический,2.5 м,,42.5 м²,2013,55.727851,49.186157,"Республика Татарстан, Казань, ул. Рауиса Гареева, 4"
Вторичка,169,6499999,балкон,раздельный,панельный,,6,"кухня, хранение одежды, спальные места",10 м²,20 м²,10,1,открытая во дворе,косметический,2.8 м,"холодильник, стиральная машина",34.1 м²,1990,55.74319839,49.20160675,"Республика Татарстан, Казань, ул. Юлиуса Фучика, 2"
Вторичка,164,8300000,балкон,совмещенный,монолитно-кирпичный,,10,,10.1 м²,,22,1,открытая во дворе,требует ремонта,3 м,,37.7 м²,2019,55.785468,49.191916,"Республика Татарстан, Казань, пр-т Альберта Камалеева, 30"
Вторичка,5864,12700000,лоджия,совмещенный,монолитный,,9,"кухня, хранение одежды",15 м²,,18,3,"подземная, открытая во дворе",дизайнерский,,"кондиционер, холодильник, стиральная машина, посудомоечная машина, водонагреватель",65 м²,2019,55.77708817,49.21397781,"Республика Татарстан, Казань, пр-т Победы, 139Ак1"
Вторичка,2984,12000000,балкон,совмещенный,кирпичный,,5,кухня,6.2 м²,36 м²,5,3,"подземная, наземная многоуровневая, открытая во дворе, за шлагбаумом во дворе",дизайнерский,2.8 м,"кондиционер, холодильник, стиральная машина, посудомоечная машина",51.8 м²,1969,55.781838,49.136337,"Республика Татарстан (Татарстан), Казань, Вахитовский район, ул. Калинина, 3"
Вторичка,496,10299000,лоджия,раздельный,кирпичный,,2,,12.1 м²,38.2 м²,5,2,,евро,,,53.6 м²,2001,55.823889,49.12739,"Республика Татарстан, Казань, ул. Четаева, 27А"
Вторичка,291,8900000,лоджия,совмещенный,кирпичный,,9,"кухня, спальные места",13.3 м²,15.2 м²,19,1,за шлагбаумом во дворе,косметический,2.8 м,"кондиционер, холодильник, стиральная машина, водонагреватель",39.2 м²,2011,55.820086,49.146739,"Республика Татарстан, Казань, ул. Адоратского, 1А"
Вторичка,131,3600000,,совмещенный,кирпичный,,1,"кухня, хранение одежды, спальные места",,10 м²,5,студия,открытая во дворе,евро,2.7 м,водонагреватель,17 м²,1965,55.8116684,49.18190002,"р-н Советский, Республика Татарстан, Казань, ул. Сибирский Тракт, 22"
Вторичка,983,9300000,лоджия,совмещенный,монолитно-кирпичный,,5,"кухня, хранение одежды, спальные места",10 м²,,20,1,"наземная многоуровневая, за шлагбаумом во дворе",дизайнерский,,"кондиционер, холодильник, стиральная машина",45 м²,2016,55.75522995,49.22664261,"Республика Татарстан, Казань, ул. Кул Гали, 7Бк1"
Вторичка,2333,11800000,лоджия,раздельный,панельный,,5,"кухня, хранение одежды, спальные места",9 м²,44 м²,9,3,открытая во дворе,дизайнерский,2.6 м,"кондиционер, посудомоечная машина, водонагреватель",68 м²,1982,55.8285706082865,49.14678306610239,"Республика Татарстан (Татарстан), Казань, ул. Адоратского, 15"
Вторичка,1446,4700000,,совмещенный,кирпичный,,3,,5.2 м²,16.9 м²,5,1,открытая во дворе,евро,,,23.8 м²,1970,55.784749,49.180049,"Республика Татарстан (Татарстан), Казань, ул. Аделя Кутуя, 68/2"
Вторичка,5810,8890000,,раздельный,кирпичный,,5,"хранение одежды, спальные места",12 м²,37 м²,9,1,за шлагбаумом во дворе,косметический,2.8 м,"кондиционер, водонагреватель",51.9 м²,2002,55.8297348,49.14410019,"Республика Татарстан, Казань, ул. Адоратского, 17"
Вторичка,972,6500000,балкон,раздельный,кирпичный,,4,,6 м²,,5,2,открытая во дворе,косметический,,,48 м²,1972,55.80752182,49.19689941,"р-н Советский, Республика Татарстан (Татарстан), Казань, ул. Зур Урам, 12"
Вторичка,2826,6500000,балкон,совмещенный,панельный,,3,кухня,5.5 м²,34 м²,5,2,открытая во дворе,косметический,,,45.8 м²,,55.83044052,49.09963989,"Республика Татарстан, Казань, ул. Короленко, 43"
Вторичка,2281,6099999,балкон,раздельный,блочный,,4,"кухня, хранение одежды, спальные места",8 м²,33 м²,5,2,открытая во дворе,косметический,2.8 м,"кондиционер, холодильник, стиральная машина",45 м²,,55.83094406,49.08411789,"Республика Татарстан, Казань, Волгоградская ул., 6"
Вторичка,3569,5375000,балкон,совмещенный,кирпичный,,4,,6 м²,,5,2,открытая во дворе,требует ремонта,,"холодильник, стиральная машина",45 м²,1971,55.82572556,49.02952576,"Республика Татарстан (Татарстан), Казань, Кировский район, Юбилейная ул., 1"
Вторичка,1962,4400000,,совмещенный,кирпичный,,6,"кухня, хранение одежды",6.6 м²,16.8 м²,9,1,открытая во дворе,косметический,,,27 м²,1990,55.7502327,49.22853851,"Республика Татарстан, Казань, ул. Кул Гали, 10"
Вторичка,271,8700000,лоджия,совмещенный,кирпичный,,2,"кухня, хранение одежды, спальные места",9 м²,,9,1,"наземная многоуровневая, открытая во дворе",евро,,,37 м²,2019,55.82238723665303,49.07262762575539,"Республика Татарстан (Татарстан), Казань, Пилотская ул., 37"
Вторичка,493,8450000,балкон,раздельный,панельный,,8,"кухня, хранение одежды",8.2 м²,,9,3,открытая во дворе,косметический,,холодильник,68 м²,1979,55.75401688,49.2253952,"Республика Татарстан, Казань, ул. Кул Гали, 5"
Вторичка,719,6900000,балкон,совмещенный,кирпичный,,1,"кухня, хранение одежды, спальные места",8 м²,26 м²,5,1,"открытая во дворе, за шлагбаумом во дворе",евро,3 м,"холодильник, водонагреватель",50 м²,2013,55.7125854251984,49.18300333562772,"р-н Приволжский, Республика Татарстан (Татарстан), Казань, ЖК Лесной Городок, Брусничная ул., 32"
Вторичка,160,8000000,балкон,совмещенный,кирпичный,,6,"кухня, хранение одежды, спальные места",5 м²,35 м²,9,1,за шлагбаумом во дворе,косметический,,"холодильник, стиральная машина",40 м²,2012,55.82038116,49.05884933,"Республика Татарстан (Татарстан), Казань, ул. Чкалова, 7Б"
Вторичка,452,6200000,"балкон, лоджия",совмещенный,кирпичный,,8,"кухня, хранение одежды, спальные места",6 м²,16 м²,9,1,открытая во дворе,косметический,2.6 м,"холодильник, стиральная машина",29 м²,1990,55.83639145,49.11297226,"Республика Татарстан, Казань, ул. Маршала Чуйкова, 13"
Вторичка,228,5950000,балкон,совмещенный,панельный,,5,"кухня, хранение одежды, спальные места",6 м²,28.9 м²,5,2,открытая во дворе,требует ремонта,,"холодильник, стиральная машина",43.9 м²,1974,55.75113678,49.19918442,"Республика Татарстан (Татарстан), Казань, ул. Гарифьянова, 28"
Вторичка,778,7500000,балкон,совмещенный,панельный,,1,"кухня, хранение одежды",7 м²,,5,2,открытая во дворе,евро,2.5 м,"кондиционер, холодильник",42.5 м²,,55.760840483085005,49.18194893152497,"Республика Татарстан (Татарстан), Казань, ул. Рихарда Зорге, 16"
Вторичка,1780,11000000,лоджия,совмещенный,монолитно-кирпичный,,7,"кухня, спальные места",12.8 м²,30 м²,10,2,"подземная, открытая во дворе, за шлагбаумом во дворе",дизайнерский,2.5 м,"кондиционер, холодильник, стиральная машина, посудомоечная машина",62.8 м²,2013,55.73273087,49.1812973,"Республика Татарстан, Казань, ул. Гарифа Ахунова, 2"
Вторичка,1724,6200000,балкон,раздельный,кирпичный,,6,,6.5 м²,26.6 м²,9,2,открытая во дворе,требует ремонта,2.8 м,,47.7 м²,1985,55.85977173,49.09806824,"Республика Татарстан, Казань, ул. Максимова, 1"
Вторичка,170,7299000,,раздельный,кирпичный,,5,,7 м²,30.6 м²,5,2,открытая во дворе,требует ремонта,3 м,,50.5 м²,,55.76972387832819,49.1441037052932,"Республика Татарстан (Татарстан), Казань, ул. Павлюхина, 106"
Вторичка,1249,8550000,,совмещенный,монолитно-кирпичный,,11,"кухня, хранение одежды, спальные места",5 м²,15.6 м²,19,1,за шлагбаумом во дворе,дизайнерский,2.8 м,"кондиционер, стиральная машина",28.6 м²,2023,55.805224,49.178414,"р-н Советский, Республика Татарстан, Казань, ул. Новаторов, 8А"
Вторичка,1489,8550000,лоджия,совмещенный,кирпичный,,7,"кухня, хранение одежды, спальные места",13.8 м²,17.8 м²,10,1,"наземная многоуровневая, открытая во дворе",дизайнерский,2.6 м,кондиционер,42.6 м²,2014,55.75454636285434,49.245612023438284,"Республика Татарстан, Казань, ул. Салиха Батыева, 17"
Вторичка,2000,5600000,балкон,совмещенный,панельный,,3,кухня,6.1 м²,15.8 м²,5,1,открытая во дворе,требует ремонта,2.5 м,,30 м²,1965,55.78746796,49.16474915,"Республика Татарстан, Казань, ул. Красной Позиции, 15"
Вторичка,805,5700000,балкон,совмещенный,панельный,,4,"кухня, хранение одежды, спальные места",9.1 м²,19.1 м²,7,1,за шлагбаумом во дворе,требует ремонта,2.7 м,"холодильник, стиральная машина",36.9 м²,2002,55.79386236110325,49.22972416662907,"р-н Советский, Республика Татарстан (Татарстан), Казань, ул. Туганлык, 12"
Вторичка,1667,11200000,лоджия,раздельный,кирпичный,,10,"кухня, хранение одежды, спальные места",8 м²,38 м²,10,3,открытая во дворе,дизайнерский,,"кондиционер, холодильник, стиральная машина, водонагреватель",64 м²,2000,55.75631451598988,49.202897983409144,"Республика Татарстан (Татарстан), Казань, ул. Братьев Касимовых, 40А"
Вторичка,2361,5700000,балкон,совмещенный,монолитный,,17,"кухня, хранение одежды",11 м²,17.1 м²,19,1,открытая во дворе,евро,2.6 м,,37 м²,2019,55.852506,48.903772,"р-н Кировский, Республика Татарстан, Казань, ул. Наиля Юсупова, 3"
Вторичка,530,8250000,лоджия,совмещенный,кирпичный,,3,"кухня, хранение одежды, спальные места",9.1 м²,,11,1,,косметический,,"кондиционер, холодильник, стиральная машина",34.5 м²,2013,55.753143653510335,49.24386086377892,"Республика Татарстан (Татарстан), Казань, ул. Салиха Батыева, 11"
Вторичка,2353,8690000,лоджия,раздельный,кирпичный,,7,"кухня, хранение одежды, спальные места",7 м²,24 м²,9,2,открытая во дворе,дизайнерский,2.5 м,"холодильник, стиральная машина",42 м²,1977,55.82619406549172,49.09652108556779,"Республика Татарстан (Татарстан), Казань, пр-т Ямашева, 11"
Вторичка,82,7500000,лоджия,совмещенный,кирпичный,,5,кухня,15.9 м²,,16,1,открытая во дворе,косметический,,,45.2 м²,,55.7326355,49.1730957,"Республика Татарстан, Казань, ул. Баки Урманче, 6"
Вторичка,1268,3390000,балкон,совмещенный,кирпичный,,4,спальные места,,,5,студия,открытая во дворе,евро,,стиральная машина,18 м²,,55.83940125,49.09371185,"Республика Татарстан, Казань, Ново-Савиновский район, Октябрьская ул., 15"
Вторичка,302,6300000,балкон,совмещенный,кирпичный,,3,кухня,6 м²,,5,2,открытая во дворе,косметический,,,43.6 м²,1962,55.8361969,49.08858109,"Республика Татарстан, Казань, пр-т Ибрагимова, 22"
Вторичка,3806,8200000,балкон,совмещенный,кирпичный,,2,кухня,5.8 м²,28.8 м²,5,2,открытая во дворе,евро,2.5 м,"кондиционер, холодильник, стиральная машина",42.4 м²,1966,55.781909,49.150979,"Республика Татарстан (Татарстан), Казань, ул. Заслонова, 8"
Вторичка,12692,5550000,балкон,совмещенный,монолитный,,5,"кухня, хранение одежды, спальные места",,19 м²,23,студия,наземная многоуровневая,дизайнерский,2.6 м,"холодильник, стиральная машина",27 м²,2023,55.87060165,49.23142242,"р-н Советский, Республика Татарстан (Татарстан), Казань, Стадионная ул., 1"
Вторичка,832,5990000,лоджия,"совмещенный, раздельный",панельный,,1,,8 м²,17 м²,10,1,открытая во дворе,евро,,,34 м²,,55.824294,49.124246,"Республика Татарстан (Татарстан), Казань, ул. Четаева, 31"
Вторичка,1318,7300000,балкон,раздельный,монолитный,,3,"кухня, хранение одежды, спальные места",9 м²,18.6 м²,5,1,"открытая во дворе, за шлагбаумом во дворе",косметический,2.6 м,"холодильник, стиральная машина, водонагреватель",40.4 м²,2005,55.807415,49.204681,"р-н Советский, Республика Татарстан, Казань, пр-т Победы, 226"
Вторичка,1908,8250000,"балкон, лоджия",раздельный,монолитный,,2,"кухня, хранение одежды, спальные места",8.6 м²,28.8 м²,19,2,открытая во дворе,косметический,2.5 м,"холодильник, стиральная машина, посудомоечная машина, водонагреватель",51.9 м²,2003,55.792306,49.22121,"р-н Советский, Республика Татарстан, Казань, пр-т Победы, 186"
Вторичка,109,3950000,балкон,совмещенный,кирпичный,,1,,8 м²,12 м²,3,1,открытая во дворе,требует ремонта,2.8 м,,27.4 м²,,55.81052921170091,49.43746514900485,"Республика Татарстан (Татарстан), Пестречинский р-н, Шигалеевское сельское поселение, с. Новое Шигалеево, ул. Габдуллы Тукая, 25"
Вторичка,2067,6550000,балкон,совмещенный,панельный,,8,"кухня, хранение одежды",8.1 м²,,10,1,открытая во дворе,косметический,,холодильник,33 м²,1997,55.824646,49.11434555,"Республика Татарстан (Татарстан), Казань, Ново-Савиновский район, Меридианная ул., 17"
Вторичка,415,15500000,"балкон, лоджия",раздельный,кирпичный,,4,"кухня, хранение одежды, спальные места",15 м²,,5,4,"подземная, за шлагбаумом во дворе",евро,3 м,"кондиционер, холодильник, стиральная машина, посудомоечная машина, водонагреватель",152.8 м²,2005,55.80927658,49.17924118,"р-н Советский, Республика Татарстан, Казань, ул. Александра Попова, 1"
Вторичка,1315,4950000,балкон,совмещенный,кирпичный,,3,,5.4 м²,30.4 м²,3,2,,косметический,,,45.8 м²,0,55.83112,49.057869,"Республика Татарстан (Татарстан), Казань, Окольная ул., 17В"
Вторичка,318,12580000,лоджия,совмещенный,кирпичный,,12,"кухня, хранение одежды, спальные места",11 м²,18 м²,24,1,"подземная, открытая во дворе",дизайнерский,2.7 м,"кондиционер, холодильник, стиральная машина, посудомоечная машина",32.8 м²,2022,55.759856,49.198698,"Республика Татарстан, Казань, пр. Созидателей, 7"
Вторичка,785,13899000,лоджия,совмещенный,кирпичный,,10,"кухня, хранение одежды, спальные места",8 м²,31 м²,11,2,подземная,дизайнерский,,"кондиционер, холодильник, водонагреватель",59 м²,2021,55.78248596,49.15362167,"Республика Татарстан, Казань, ул. Амирхана Еники, 10"
Вторичка,633,3499000,,совмещенный,кирпичный,,5,,2.5 м²,11.9 м²,5,1,,косметический,,,17.8 м²,,55.816571,49.080857,"Республика Татарстан (Татарстан), Казань, ул. Дежнева, 2к2"
Вторичка,150,3550000,,совмещенный,кирпичный,,2,кухня,,18 м²,3,студия,открытая во дворе,дизайнерский,2.7 м,водонагреватель,18 м²,1954,55.83495712,49.08568192,"Республика Татарстан, Казань, Енисейская ул., 4"
Вторичка,3287,5999900,балкон,совмещенный,панельный,,2,"кухня, хранение одежды, спальные места",10 м²,19 м²,9,1,открытая во дворе,косметический,,"холодильник, стиральная машина",39 м²,1997,55.777646,49.22819,"Республика Татарстан, Казань, Советский район, мкр-н Азино-1, ул. Закиева, 37"
Вторичка,523,9300000,лоджия,раздельный,панельный,,6,"кухня, хранение одежды",8.5 м²,29 м²,,2,открытая во дворе,евро,2.8 м,холодильник,52 м²,1981,55.829557,49.149533,"р-н Ново-Савиновский, Республика Татарстан, Казань, ул. Адоратского, 8"
Вторичка,1342,6650000,балкон,совмещенный,кирпичный,,5,"кухня, хранение одежды, спальные места",6.5 м²,19.7 м²,9,1,открытая во дворе,косметический,2.7 м,"холодильник, стиральная машина",33.4 м²,1977,55.8262825,49.09619141,"Республика Татарстан, Казань, пр-т Ямашева, 11"
Вторичка,2451,12850000,"балкон, лоджия",раздельный,панельный,,8,"кухня, хранение одежды, спальные места",13 м²,40 м²,14,3,"наземная многоуровневая, открытая во дворе, за шлагбаумом во дворе",евро,2.6 м,"кондиционер, холодильник, стиральная машина, посудомоечная машина",73 м²,2018,55.800914,49.240937,"р-н Советский, Республика Татарстан, Казань, ул. Александра Курынова, 6к2"
